,City,Country,Temperature,Latitude,Longitude,Humidity,Cloudiness,Wind Speed,Date
0,Saint-Philippe,CA,15.78,45.36,-73.48,66.0,1.0,2.46,1551489509.0
1,Albany,US,26.94,42.65,-73.75,68.0,1.0,3.36,1551489425.0
2,Avarua,CK,84.2,-21.21,-159.78,79.0,76.0,3.36,1551486600.0
3,Jamestown,AU,87.5,-33.21,138.6,29.0,0.0,7.94,1551489443.0
4,Hermanus,ZA,63.3,-34.42,19.24,94.0,0.0,1.99,1551489356.0
5,Ures,MX,75.34,30.73,-112.95,40.0,0.0,4.0,1551489257.0
6,Rikitea,PF,77.83,-23.12,-134.97,100.0,64.0,12.19,1551489353.0
7,Hasaki,JP,49.53,35.73,140.83,37.0,20.0,19.46,1551488675.0
8,Ambon,FR,51.44,47.55,-2.56,100.0,90.0,12.75,1551489556.0
9,Bowen,AU,84.22,-20.01,148.25,65.0,40.0,19.46,1551489342.0
10,Bud,NO,35.71,62.91,6.91,64.0,92.0,13.87,1551488499.0
11,Angoche,MZ,81.25,-16.23,39.91,100.0,56.0,6.38,1551489587.0
12,Rundu,NA,69.05,-17.91,19.77,81.0,32.0,2.57,1551489587.0
13,Mataura,NZ,61.0,-46.19,168.86,73.0,0.0,11.99,1551489004.0
14,Thompson,CA,-7.61,55.74,-97.86,69.0,75.0,6.93,1551484800.0
15,Sao Joao da Barra,BR,84.26,-21.64,-41.05,95.0,76.0,24.05,1551489587.0
16,Mehamn,NO,10.33,71.03,27.85,77.0,20.0,3.8,1551489587.0
17,Provideniya,RU,27.25,64.42,-173.23,96.0,0.0,14.54,1551489588.0
18,Faanui,PF,82.06,-16.48,-151.75,100.0,88.0,6.15,1551489588.0
19,Butembo,CD,59.78,0.12,29.29,98.0,56.0,2.35,1551489588.0
20,Vaini,IN,59.0,15.34,74.49,58.0,0.0,2.35,1551484800.0
22,Qaanaaq,GL,-17.04,77.48,-69.36,71.0,0.0,4.59,1551489589.0
23,Mahebourg,MU,80.24,-20.41,57.7,83.0,40.0,6.93,1551489239.0
24,Rio Grande,BR,75.8,-32.03,-52.1,68.0,0.0,14.54,1551489540.0
25,Tasiilaq,GL,17.6,65.61,-37.64,72.0,48.0,29.97,1551487800.0
26,Constitucion,MX,76.12,23.99,-104.67,11.0,5.0,17.22,1551489016.0
27,Atuona,PF,80.71,-9.8,-139.03,100.0,0.0,6.71,1551489242.0
28,Atherton,GB,45.68,53.52,-2.49,81.0,75.0,8.05,1551489311.0
29,Cayenne,GF,78.8,4.94,-52.33,74.0,100.0,6.93,1551486600.0
30,Port Alfred,ZA,66.45,-33.59,26.89,83.0,32.0,1.99,1551489410.0
31,East London,ZA,71.3,-33.02,27.91,100.0,88.0,4.03,1551489301.0
33,Alofi,NU,86.0,-19.06,-169.92,74.0,68.0,8.05,1551484800.0
35,Butaritari,KI,82.15,3.07,172.79,100.0,56.0,15.77,1551489595.0
36,Umea,SE,30.94,63.83,20.26,90.0,0.0,10.29,1551488405.0
37,Ushuaia,AR,51.8,-54.81,-68.31,71.0,75.0,8.05,1551484800.0
39,Mar del Plata,AR,61.81,-46.43,-67.52,68.0,32.0,6.04,1551489596.0
41,Marawi,PH,69.55,8.0,124.29,96.0,68.0,1.12,1551489413.0
42,Quatre Cocos,MU,80.28,-20.21,57.76,83.0,40.0,6.93,1551489540.0
44,Grindavik,IS,37.83,63.84,-22.43,100.0,75.0,1.12,1551488955.0
45,Dikson,RU,-2.5,73.51,80.55,83.0,48.0,22.7,1551489598.0
46,Kampong Thum,KH,74.36,12.71,104.89,81.0,0.0,4.25,1551489405.0
47,Turhal,TR,41.0,40.38,36.08,88.0,40.0,1.12,1551486000.0
49,Cape Town,ZA,65.55,-33.93,18.42,88.0,0.0,4.7,1551489312.0
50,Polunochnoye,RU,16.58,60.87,60.43,78.0,64.0,3.69,1551489603.0
52,Punta Arenas,CL,48.11,-53.16,-70.91,93.0,75.0,2.24,1551489191.0
53,Jining,CN,54.0,35.41,116.58,28.0,56.0,0.67,1551488713.0
54,Puerto Ayora,EC,84.2,-0.74,-90.35,70.0,20.0,9.17,1551484800.0
55,Valparaiso,US,30.99,41.47,-87.06,59.0,90.0,5.82,1551489397.0
56,Pasni,PK,72.2,25.26,63.48,91.0,92.0,25.95,1551489608.0
57,Arraial do Cabo,BR,75.53,-22.97,-42.02,100.0,92.0,5.82,1551489572.0
58,Busselton,AU,66.96,-33.64,115.35,35.0,44.0,7.16,1551489049.0
59,Merrill,US,38.7,42.03,-121.6,48.0,75.0,4.7,1551489474.0
60,Ararat,AU,93.0,-37.28,142.93,25.0,0.0,8.01,1551489414.0
61,Torbay,CA,18.81,47.66,-52.73,67.0,75.0,18.34,1551488910.0
62,Grand Gaube,MU,80.29,-20.01,57.66,83.0,40.0,6.93,1551489540.0
65,Barrow,AR,67.7,-38.31,-60.23,42.0,8.0,17.56,1551489267.0
66,Te Anau,NZ,62.8,-45.41,167.72,51.0,0.0,3.58,1551489433.0
67,Ponta do Sol,BR,68.96,-20.63,-46.0,90.0,92.0,4.36,1551489613.0
68,Srednekolymsk,RU,-12.63,67.46,153.71,59.0,80.0,5.48,1551489299.0
70,Svetlogorsk,RU,21.2,53.14,59.15,92.0,90.0,13.42,1551486600.0
71,Cabedelo,BR,78.8,-6.97,-34.84,94.0,40.0,4.7,1551484800.0
72,Harper,US,60.94,30.3,-99.24,88.0,90.0,5.82,1551489616.0
73,Puerto Suarez,BO,84.2,-18.96,-57.8,70.0,0.0,5.82,1551484800.0
74,Bluff,AU,81.61,-23.58,149.07,49.0,0.0,12.75,1551489622.0
75,Muroto,JP,51.8,33.37,134.14,34.0,0.0,8.05,1551484800.0
76,Concarneau,FR,51.08,47.88,-3.92,93.0,90.0,11.41,1551489556.0
77,Yellowknife,CA,-8.18,62.45,-114.38,52.0,75.0,6.93,1551489196.0
78,Camacha,PT,62.6,33.08,-16.33,67.0,40.0,4.7,1551486600.0
79,Varnavino,RU,5.56,61.19,46.56,72.0,56.0,3.47,1551489625.0
80,Laguna,MX,87.55,27.52,-110.01,19.0,8.0,4.92,1551489625.0
81,New Norfolk,AU,95.09,-42.78,147.06,16.0,0.0,12.75,1551489235.0
82,Bulungu,CD,72.97,-4.54,18.6,90.0,36.0,3.69,1551489626.0
84,Arinos,BR,71.21,-15.92,-46.11,96.0,48.0,3.69,1551489450.0
85,Dunedin,NZ,64.99,-45.87,170.5,60.0,0.0,4.0,1551489089.0
86,Poronaysk,RU,14.74,49.22,143.1,79.0,0.0,7.94,1551489627.0
87,Lompoc,US,57.76,34.64,-120.46,72.0,90.0,4.92,1551489324.0
88,Magadi,IN,71.6,12.96,77.22,83.0,75.0,8.05,1551486600.0
90,Nome,US,61.54,30.04,-94.42,77.0,75.0,3.13,1551489147.0
91,El Limon,VE,74.86,10.3,-67.63,70.0,8.0,3.69,1551489628.0
92,Jadu,LY,40.25,31.95,12.03,78.0,0.0,6.6,1551489630.0
93,Naryan-Mar,RU,3.71,67.67,53.09,79.0,0.0,14.65,1551489630.0
94,Moa,CU,71.62,20.66,-74.95,84.0,0.0,3.58,1551489630.0
95,Naze,NG,78.8,5.43,7.07,94.0,20.0,3.36,1551484800.0
96,Severo-Kurilsk,RU,24.19,50.68,156.12,100.0,36.0,8.39,1551489631.0
97,Ostrovnoy,RU,14.65,68.05,39.51,89.0,68.0,11.07,1551489632.0
98,Sonqor,IR,33.8,34.78,47.6,80.0,40.0,9.17,1551486600.0
99,Kotaparh,IN,62.17,19.15,82.35,99.0,12.0,3.91,1551489634.0
100,Sibolga,ID,68.2,1.74,98.78,100.0,76.0,1.23,1551489521.0
101,Klaksvik,FO,44.6,62.23,-6.59,100.0,88.0,13.87,1551487800.0
102,Liverpool,GB,46.09,53.41,-2.98,81.0,75.0,10.29,1551489446.0
103,Mareeba,AU,76.75,-16.99,145.42,88.0,75.0,12.75,1551489200.0
105,Belmonte,PT,45.0,40.36,-7.35,95.0,0.0,1.01,1551489354.0
106,Omboue,GA,80.3,-1.57,9.26,100.0,76.0,3.02,1551489635.0
107,Bredasdorp,ZA,59.85,-34.53,20.04,82.0,44.0,5.82,1551488409.0
108,Tura,IN,44.71,25.52,90.21,73.0,0.0,2.24,1551489637.0
109,Kaeo,NZ,70.0,-35.1,173.78,70.0,8.0,13.0,1551488885.0
111,Hilo,US,68.13,19.71,-155.08,49.0,90.0,9.17,1551489089.0
112,Talnakh,RU,10.24,69.49,88.39,84.0,76.0,18.79,1551489637.0
113,Ilulissat,GL,35.6,69.22,-51.1,37.0,24.0,19.46,1551487800.0
114,Sainte-Maxime,FR,50.45,43.31,6.64,53.0,0.0,4.7,1551489634.0
115,Gat,SN,75.2,14.69,-16.54,12.0,0.0,16.11,1551488400.0
116,Jauja,PE,42.05,-11.78,-75.5,100.0,88.0,0.89,1551489638.0
117,Beira,ES,52.81,43.2,-8.36,93.0,92.0,3.36,1551489632.0
118,Whitehorse,CA,25.11,60.72,-135.06,53.0,75.0,13.87,1551489311.0
119,Xining,CN,8.03,36.62,101.77,75.0,0.0,4.25,1551489641.0
120,Cienfuegos,CU,76.48,22.15,-80.44,65.0,88.0,1.12,1551484680.0
121,Longyearbyen,NO,6.8,78.22,15.63,71.0,40.0,6.93,1551487800.0
123,Hobart,AU,95.16,-42.88,147.33,16.0,0.0,12.75,1551489235.0
124,Kruisfontein,ZA,61.45,-34.0,24.73,89.0,36.0,5.7,1551489642.0
125,Point Fortin,TT,75.56,10.16,-61.68,78.0,20.0,6.93,1551489608.0
126,Prince Rupert,CA,42.8,54.32,-130.32,75.0,1.0,4.7,1551488400.0
127,Podor,MR,61.99,16.65,-14.96,27.0,0.0,8.84,1551489642.0
128,Pisco,PE,75.2,-13.71,-76.2,73.0,0.0,20.8,1551484800.0
129,Port Elizabeth,US,35.19,39.31,-74.98,100.0,90.0,16.11,1551489632.0
130,Carnarvon,ZA,54.16,-30.97,22.13,73.0,0.0,2.8,1551489285.0
131,Jasper,US,51.87,33.83,-87.28,87.0,64.0,4.36,1551489632.0
132,Sechura,PE,79.4,-5.56,-80.82,71.0,8.0,12.41,1551489647.0
133,Cherskiy,RU,-7.9,68.75,161.3,77.0,68.0,6.6,1551489647.0
134,Campoverde,IT,48.83,41.54,12.73,87.0,0.0,5.82,1551489633.0
135,Kogon,UZ,47.52,39.73,64.54,81.0,20.0,6.93,1551486600.0
136,Rawson,AR,58.48,-43.3,-65.11,67.0,24.0,4.25,1551489300.0
137,Taoudenni,ML,49.57,22.68,-3.98,33.0,0.0,5.82,1551489649.0
138,Maragogi,BR,77.83,-9.01,-35.22,90.0,32.0,4.81,1551489649.0
139,Nizhniy Baskunchak,RU,33.68,48.22,46.83,95.0,76.0,12.19,1551489649.0
140,Kahului,US,72.63,20.89,-156.47,44.0,40.0,12.75,1551489429.0
141,Zhireken,RU,5.96,52.82,117.29,59.0,0.0,2.35,1551489651.0
142,Kodiak,US,30.52,39.95,-94.76,86.0,1.0,5.82,1551489616.0
143,Doha,QA,60.15,25.29,51.53,25.0,0.0,14.99,1551484800.0
144,Muisne,EC,76.03,0.61,-80.02,88.0,76.0,4.47,1551489656.0
145,Faya,SA,57.2,18.39,42.45,82.0,0.0,6.93,1551484800.0
146,Okhotsk,RU,1.96,59.36,143.24,100.0,0.0,7.94,1551489657.0
147,Namibe,AO,76.66,-15.19,12.15,100.0,68.0,8.72,1551489658.0
149,Sitka,US,34.0,37.17,-99.65,75.0,0.0,5.01,1551488493.0
150,Monteagudo,BO,64.24,-19.8,-63.96,94.0,92.0,2.35,1551489659.0
151,Valle de Angeles,HN,78.58,14.16,-87.04,46.0,75.0,4.7,1551488400.0
152,Filadelfia,PY,86.11,-22.35,-60.04,46.0,0.0,8.5,1551489661.0
153,North Bend,US,46.35,43.41,-124.22,75.0,20.0,6.93,1551489385.0
155,Beringovskiy,RU,26.44,63.05,179.32,88.0,12.0,18.57,1551489662.0
156,Hami,CN,22.75,42.84,93.51,50.0,0.0,5.93,1551489641.0
157,Beatrice,US,25.93,40.27,-96.75,79.0,75.0,16.11,1551489651.0
158,Phangnga,TH,75.4,8.45,98.53,74.0,20.0,1.12,1551486600.0
159,Calvinia,ZA,50.56,-31.47,19.78,81.0,0.0,2.57,1551489668.0
160,Marzuq,YE,52.09,14.4,46.47,86.0,0.0,2.24,1551489223.0
162,Khatanga,RU,-17.94,71.98,102.47,26.0,8.0,3.47,1551489669.0
163,Lebu,ET,62.6,8.96,38.73,51.0,75.0,2.24,1551484800.0
164,Vila Franca do Campo,PT,57.99,37.72,-25.43,87.0,40.0,16.11,1551489614.0
165,Dongsheng,CN,45.43,29.72,112.52,100.0,92.0,9.17,1551489238.0
167,Hithadhoo,MV,82.73,-0.6,73.08,100.0,80.0,8.5,1551489246.0
168,Coquimbo,CL,60.8,-29.95,-71.34,82.0,0.0,5.82,1551484800.0
169,Mayo,CA,19.4,63.59,-135.9,57.0,5.0,3.36,1551484800.0
170,Shingu,JP,48.2,33.72,135.99,39.0,0.0,3.36,1551484800.0
171,Port Lincoln,AU,73.69,-34.72,135.86,82.0,8.0,6.93,1551489670.0
172,Hambantota,LK,73.4,6.12,81.12,100.0,20.0,5.82,1551485400.0
173,Sinnamary,GF,79.85,5.38,-52.96,92.0,92.0,12.19,1551489671.0
174,Sal Rei,CV,69.8,16.18,-22.92,56.0,0.0,19.46,1551488400.0
175,Miandrivazo,MG,69.95,-19.53,45.46,93.0,32.0,3.58,1551489671.0
176,Ribeira Grande,PT,62.48,38.52,-28.7,91.0,92.0,21.92,1551489671.0
177,Cartagena,ES,52.34,37.63,-1.0,93.0,20.0,3.36,1551489606.0
178,Half Moon Bay,US,54.46,37.46,-122.43,76.0,90.0,2.24,1551489667.0
179,Tuktoyaktuk,CA,-4.01,69.44,-133.03,70.0,5.0,18.34,1551488400.0
180,Erechim,BR,73.4,-27.64,-52.27,64.0,0.0,3.47,1551484800.0
181,Katsuura,JP,47.64,33.93,134.5,70.0,20.0,6.93,1551488082.0
182,Tiksi,RU,-10.29,71.64,128.87,69.0,48.0,2.91,1551489270.0
183,Chokurdakh,RU,-22.39,70.62,147.9,33.0,48.0,5.37,1551489673.0
184,Hirara,JP,74.34,24.8,125.28,83.0,20.0,9.17,1551484800.0
185,Broken Hill,AU,89.6,-31.97,141.45,18.0,0.0,13.87,1551484800.0
186,Teahupoo,PF,87.39,-17.83,-149.27,66.0,40.0,11.41,1551489187.0
187,Banda Aceh,ID,70.99,5.56,95.32,98.0,12.0,1.79,1551489674.0
188,Mitsamiouli,KM,82.15,-11.38,43.28,100.0,24.0,1.12,1551489674.0
189,Ignatovka,RU,26.98,53.95,47.65,96.0,88.0,6.6,1551489674.0
190,Cidreira,BR,73.01,-30.17,-50.22,81.0,76.0,12.53,1551489289.0
191,Hofn,IS,39.26,64.25,-15.21,100.0,92.0,25.28,1551489674.0
192,Victoria,BN,81.23,5.28,115.24,78.0,75.0,4.7,1551486600.0
193,Hella,IS,35.01,63.84,-20.4,94.0,92.0,8.99,1551488518.0
194,Norman Wells,CA,1.4,65.28,-126.83,54.0,5.0,25.28,1551488400.0
196,Lavrentiya,RU,22.16,65.58,-170.99,95.0,0.0,6.15,1551489662.0
197,Roald,NO,35.11,62.58,6.12,64.0,88.0,13.87,1551489602.0
198,Caravelas,BR,84.08,-17.73,-39.27,100.0,36.0,18.01,1551489676.0
199,Fomboni,KM,82.69,-12.28,43.74,100.0,36.0,7.38,1551489676.0
200,Vyazemskiy,RU,21.94,47.53,134.76,55.0,0.0,3.36,1551489676.0
201,Nuevo Progreso,US,71.78,26.05,-97.95,88.0,90.0,11.41,1551489396.0
203,Ahipara,NZ,73.69,-35.17,173.16,62.0,0.0,9.62,1551489676.0
204,Airai,TL,74.81,-8.93,125.41,91.0,44.0,0.56,1551489655.0
205,Tual,ID,81.7,-5.67,132.75,100.0,64.0,13.65,1551489677.0
206,High Level,CA,-5.81,58.52,-117.13,53.0,20.0,10.29,1551488400.0
207,Sept-Iles,CA,9.05,50.2,-66.38,64.0,5.0,3.36,1551489501.0
209,Gao,ML,56.41,16.28,-0.04,48.0,0.0,6.6,1551489677.0
210,Marsa Matruh,EG,48.2,31.35,27.25,87.0,40.0,4.7,1551488400.0
211,Timbuktu,ML,58.12,16.77,-3.01,38.0,0.0,11.74,1551489380.0
212,Waterloo,CA,23.95,43.47,-80.52,73.0,40.0,3.36,1551489515.0
213,Bilma,NE,70.76,18.69,12.92,36.0,92.0,2.91,1551489678.0
214,Scarborough,GB,44.56,54.28,-0.41,93.0,76.0,4.7,1551489482.0
215,Christchurch,NZ,68.5,-43.53,172.64,55.0,0.0,6.93,1551489375.0
216,Richards Bay,ZA,72.65,-28.77,32.06,89.0,88.0,3.69,1551489679.0
217,Kaitangata,NZ,60.41,-46.28,169.85,74.0,0.0,10.96,1551489298.0
218,Kayes,ML,60.19,14.44,-11.44,41.0,0.0,8.39,1551489679.0
219,Adrar,DZ,53.6,27.87,-0.29,32.0,0.0,9.17,1551488400.0
220,Bambous Virieux,MU,80.26,-20.34,57.76,83.0,40.0,6.93,1551489540.0
223,Tuatapere,NZ,60.01,-46.13,167.69,74.0,0.0,11.99,1551489605.0
224,Tabas,IR,43.4,33.6,56.92,78.0,24.0,4.92,1551489680.0
225,Kapaa,US,73.63,22.08,-159.32,47.0,1.0,14.99,1551489508.0
226,Huarmey,PE,73.46,-10.07,-78.15,68.0,100.0,3.91,1551489680.0
227,Mount Isa,AU,87.8,-20.73,139.49,40.0,0.0,10.29,1551486600.0
228,Touros,BR,78.8,-5.2,-35.46,88.0,40.0,3.36,1551488400.0
229,Waddan,LY,38.95,29.16,16.14,62.0,44.0,2.8,1551489681.0
230,Pangnirtung,CA,-13.08,66.15,-65.72,59.0,12.0,4.14,1551489681.0
231,Bethel,US,34.32,60.79,-161.76,100.0,90.0,12.75,1551487980.0
232,Geraldton,CA,12.2,49.72,-86.95,47.0,90.0,5.82,1551484800.0
233,Iqaluit,CA,-7.32,63.75,-68.52,63.0,40.0,20.8,1551488566.0
235,Karratha,AU,84.08,-20.74,116.85,57.0,0.0,4.36,1551489683.0
238,Bara,NG,75.76,10.41,10.6,43.0,48.0,4.92,1551489683.0
239,Yerofey Pavlovich,RU,9.16,53.97,121.97,71.0,20.0,1.34,1551489684.0
240,Meulaboh,ID,78.95,4.14,96.13,100.0,44.0,5.26,1551489684.0
241,Jinchang,CN,14.02,38.52,102.19,62.0,44.0,3.13,1551489684.0
242,Caceres,CO,69.73,5.53,-74.53,96.0,48.0,1.79,1551489684.0
243,Petropavlovsk-Kamchatskiy,RU,14.0,53.05,158.65,51.0,68.0,8.95,1551486600.0
245,Sioux Lookout,CA,4.77,50.1,-91.92,77.0,40.0,3.36,1551488400.0
246,Mana,RS,42.6,43.52,20.24,75.0,75.0,4.7,1551486600.0
247,Acapulco,MX,82.4,16.86,-99.88,78.0,5.0,8.05,1551483900.0
249,Fortuna,ES,54.1,38.18,-1.13,76.0,0.0,9.17,1551489677.0
250,Souillac,FR,45.54,45.6,-0.6,93.0,90.0,8.05,1551489129.0
251,Pitimbu,BR,78.8,-7.47,-34.81,94.0,40.0,4.7,1551484800.0
253,Sergeyevka,KZ,16.76,53.88,67.42,83.0,68.0,10.4,1551489686.0
254,Sovetskiy,RU,19.51,56.76,48.47,90.0,92.0,12.75,1551489686.0
255,Pacific Grove,US,54.99,36.62,-121.92,58.0,90.0,2.35,1551489655.0
256,Fairbanks,US,30.47,64.84,-147.72,53.0,1.0,2.57,1551489432.0
257,Dicabisagan,PH,72.11,17.08,122.42,100.0,36.0,6.82,1551489246.0
258,Bondo,CD,70.18,3.81,23.69,97.0,88.0,2.68,1551489687.0
260,Upernavik,GL,2.5,72.79,-56.15,100.0,44.0,9.95,1551489246.0
261,Daru,SL,73.91,7.99,-10.85,65.0,0.0,7.38,1551489688.0
263,Tessalit,ML,50.38,20.2,1.01,46.0,0.0,7.49,1551489688.0
264,Petropavlovskoye,RU,24.8,46.79,142.5,58.0,0.0,2.24,1551486600.0
265,Teeli,RU,-9.52,51.01,90.2,41.0,0.0,1.34,1551489688.0
266,Martapura,ID,78.8,-3.41,114.85,94.0,20.0,5.82,1551484800.0
267,Castro,CL,55.4,-42.48,-73.76,76.0,20.0,8.05,1551484800.0
268,Sao Filipe,CV,72.43,14.9,-24.5,87.0,0.0,17.22,1551489689.0
269,Raudeberg,NO,37.45,61.99,5.14,74.0,92.0,12.75,1551489602.0
270,Atasu,KZ,29.36,48.68,71.64,86.0,92.0,4.36,1551489690.0
271,Letterkenny,IE,45.61,54.95,-7.73,98.0,8.0,6.6,1551489443.0
272,Chuy,UY,75.53,-33.69,-53.46,58.0,44.0,11.41,1551489690.0
273,Farnham,GB,46.45,51.22,-0.8,87.0,68.0,6.93,1551489682.0
274,Monterey,US,54.81,36.6,-121.89,58.0,90.0,2.35,1551489655.0
275,Corcoran,US,57.61,36.1,-119.56,93.0,90.0,4.7,1551489354.0
276,Urengoy,RU,13.61,65.96,78.37,85.0,76.0,13.98,1551489691.0
278,Nikolskoye,RU,12.99,59.7,30.79,78.0,0.0,2.24,1551488408.0
280,Oussouye,SN,68.07,12.49,-16.54,88.0,0.0,4.7,1551484800.0
281,Portland,US,47.91,45.52,-122.67,49.0,20.0,11.41,1551488924.0
282,Aksu,KZ,1.4,52.04,76.93,84.0,40.0,2.68,1551486600.0
283,Rocha,UY,72.52,-34.48,-54.34,50.0,0.0,10.18,1551489203.0
284,Chicama,PE,77.0,-7.84,-79.15,83.0,75.0,10.29,1551484800.0
285,Biak,ID,82.01,-0.91,122.88,84.0,12.0,2.68,1551488985.0
286,Paamiut,GL,31.66,61.99,-49.67,87.0,48.0,0.56,1551489692.0
287,Port Macquarie,AU,75.2,-31.43,152.91,60.0,40.0,4.7,1551484800.0
288,Waitati,NZ,61.27,-45.75,170.57,77.0,0.0,3.36,1551489694.0
289,Eureka,US,48.67,40.8,-124.16,66.0,90.0,2.68,1551489619.0
290,Kedrovyy,RU,24.8,56.17,91.82,85.0,40.0,2.24,1551486600.0
291,Voskresenskoye,RU,20.18,56.84,45.43,84.0,76.0,7.72,1551489695.0
293,Kawalu,ID,68.92,-7.38,108.21,94.0,76.0,2.57,1551489696.0
294,Saint Anthony,US,27.64,43.97,-111.68,46.0,90.0,3.36,1551489138.0
295,Havoysund,NO,8.6,71.0,24.66,65.0,0.0,5.82,1551486000.0
296,Varzea Grande,BR,69.51,-29.42,-50.86,88.0,0.0,6.93,1551489694.0
297,Plettenberg Bay,ZA,64.15,-34.05,23.37,100.0,20.0,4.36,1551489698.0
298,Comodoro Rivadavia,AR,60.8,-45.87,-67.48,63.0,0.0,2.24,1551484800.0
299,Mount Pleasant,US,42.19,33.16,-94.97,81.0,90.0,8.05,1551489433.0
300,Celestun,MX,80.62,20.87,-90.4,88.0,0.0,14.65,1551489699.0
301,Pleasanton,US,55.06,37.66,-121.87,71.0,90.0,9.17,1551489667.0
302,Loandjili,CG,75.2,-4.77,11.87,100.0,20.0,2.24,1551488400.0
303,Chippewa Falls,US,18.84,44.94,-91.39,85.0,90.0,5.82,1551489616.0
304,Mezen,RU,3.58,65.85,44.24,80.0,0.0,2.35,1551489699.0
305,Cuenca,ES,47.64,40.07,-2.13,40.0,64.0,5.7,1551489348.0
306,Port-Gentil,GA,79.81,-0.72,8.78,100.0,76.0,5.14,1551489700.0
307,Merauke,ID,80.62,-8.49,140.4,100.0,48.0,5.59,1551489700.0
308,Port Augusta,AU,97.61,-32.49,137.76,14.0,0.0,16.11,1551489340.0
309,Pachino,IT,44.01,36.72,15.09,79.0,0.0,15.01,1551489623.0
310,Pascagoula,US,65.53,30.37,-88.56,93.0,40.0,3.36,1551489680.0
311,Ambunti,PG,80.53,-4.22,142.82,89.0,56.0,2.91,1551489701.0
312,Kamenka,RU,30.99,53.19,44.05,87.0,88.0,12.41,1551488730.0
313,Komsomolskiy,RU,1.87,67.55,63.78,75.0,64.0,10.74,1551489212.0
316,Verkhnevilyuysk,RU,6.23,63.45,120.31,79.0,64.0,3.36,1551489703.0
317,Barcelos,PT,53.26,41.53,-8.62,100.0,75.0,2.35,1551489424.0
318,Presidente Medici,BR,76.25,-11.18,-61.9,91.0,24.0,2.13,1551489467.0
319,Kutum,SD,60.41,14.2,24.66,22.0,0.0,9.28,1551489703.0
320,Maceio,BR,78.8,-9.67,-35.74,83.0,20.0,4.7,1551488400.0
321,Pilar,AR,79.88,-34.46,-58.91,61.0,0.0,4.7,1551489008.0
322,El Bosque,MX,86.0,17.06,-92.72,51.0,5.0,13.87,1551483840.0
323,Salalah,OM,77.0,17.01,54.1,78.0,0.0,1.12,1551484200.0
324,Sistranda,NO,37.24,63.73,8.83,93.0,75.0,29.97,1551489574.0
325,Atar,MR,60.73,20.52,-13.05,19.0,0.0,9.62,1551489705.0
326,Swan River,CA,3.04,52.11,-101.27,71.0,44.0,4.14,1551489705.0
327,Dingle,PH,75.22,11.0,122.67,81.0,24.0,11.07,1551489705.0
328,Imeni Poliny Osipenko,RU,7.36,52.42,136.49,60.0,0.0,2.8,1551489705.0
329,Isilkul,RU,16.31,54.9,71.26,80.0,68.0,8.5,1551489705.0
330,Sangin,AF,50.96,32.07,64.85,98.0,92.0,12.75,1551489706.0
331,Creel,MX,66.4,27.75,-107.63,29.0,0.0,4.92,1551489708.0
333,Gloversville,US,26.73,43.05,-74.34,63.0,1.0,3.36,1551489534.0
334,Zeya,RU,4.43,53.74,127.27,65.0,20.0,1.79,1551489709.0
335,Nkawkaw,GH,73.91,6.55,-0.77,68.0,32.0,2.91,1551489710.0
336,Qasigiannguit,GL,35.6,68.82,-51.19,37.0,24.0,19.46,1551487800.0
337,Saldanha,PT,43.4,41.42,-6.55,89.0,8.0,6.15,1551489710.0
338,Pauini,BR,78.23,-7.71,-67.0,89.0,80.0,3.02,1551489710.0
339,Innisfail,CA,-8.52,52.02,-113.95,63.0,5.0,5.82,1551489316.0
340,Margate,AU,95.04,-43.03,147.26,16.0,0.0,12.75,1551489235.0
341,Fevik,NO,27.52,58.38,8.68,100.0,0.0,2.24,1551489605.0
342,Opuwo,NA,64.33,-18.06,13.84,90.0,0.0,2.91,1551489711.0
343,Byron Bay,AU,75.25,-28.65,153.62,78.0,75.0,13.87,1551489216.0
344,Los Llanos de Aridane,ES,59.83,28.66,-17.92,63.0,90.0,9.17,1551489455.0
345,Port Blair,IN,81.2,11.67,92.75,100.0,12.0,9.73,1551489712.0
346,Porto Walter,BR,76.43,-8.27,-72.74,88.0,8.0,2.13,1551489714.0
347,Itarsi,IN,54.88,22.61,77.76,49.0,0.0,8.39,1551489714.0
348,Jutai,BR,74.68,-1.71,-47.89,96.0,92.0,2.57,1551489714.0
349,Tacoronte,ES,58.12,28.48,-16.41,76.0,80.0,8.05,1551489683.0
350,Colares,PT,56.16,38.8,-9.45,93.0,75.0,13.87,1551489637.0
351,Marfino,RU,17.67,56.07,37.56,85.0,0.0,13.42,1551488739.0
352,Akdepe,TM,40.24,42.05,59.39,93.0,75.0,4.7,1551486600.0
353,Sandusky,US,25.65,41.45,-82.71,73.0,20.0,8.05,1551489664.0
354,Itarema,BR,76.7,-2.92,-39.92,92.0,24.0,5.37,1551489716.0
355,Vila Velha,BR,81.59,-3.71,-38.6,83.0,20.0,4.7,1551489489.0
356,Bathsheba,BB,78.8,13.22,-59.52,69.0,40.0,24.16,1551484800.0
358,Mount Gambier,AU,93.2,-37.83,140.78,17.0,0.0,14.99,1551484800.0
359,Saskylakh,RU,-27.97,71.97,114.09,43.0,8.0,3.36,1551489676.0
360,Biltine,TD,74.36,14.53,20.93,20.0,0.0,13.76,1551489717.0
361,Changji,CN,41.74,32.07,116.17,100.0,92.0,8.61,1551489717.0
363,Ereymentau,KZ,11.9,51.62,73.1,71.0,76.0,2.91,1551489535.0
364,Chimbote,PE,74.0,-9.08,-78.59,83.0,64.0,5.14,1551489576.0
365,Burgeo,CA,24.82,47.61,-57.61,100.0,24.0,38.14,1551489655.0
366,Masterton,NZ,67.48,-40.95,175.66,58.0,56.0,4.0,1551489604.0
367,Montepuez,MZ,69.1,-13.13,39.0,94.0,0.0,2.91,1551489720.0
369,Amapa,HN,78.33,15.09,-87.97,74.0,20.0,12.75,1551489637.0
370,Seoul,KR,36.63,37.57,126.98,69.0,40.0,5.82,1551486600.0
371,Bloemfontein,ZA,55.4,-29.12,26.22,71.0,0.0,2.24,1551488400.0
372,Churachandpur,IN,39.22,24.33,93.67,78.0,0.0,0.56,1551489722.0
373,Englehart,CA,21.2,47.82,-79.87,85.0,90.0,10.29,1551489120.0
374,Zarubino,RU,35.21,42.65,131.06,84.0,0.0,2.13,1551489723.0
376,Belyy Yar,RU,21.2,53.6,91.39,92.0,0.0,1.68,1551486600.0
377,Otane,NZ,64.99,-39.89,176.62,64.0,8.0,1.01,1551488716.0
378,Yar-Sale,RU,-5.25,66.83,70.83,81.0,36.0,2.8,1551489724.0
379,Kenai,US,33.42,60.55,-151.26,47.0,1.0,3.36,1551489424.0
380,Mwene-Ditu,CD,72.11,-7.01,23.45,90.0,76.0,4.81,1551489724.0
381,Lappeenranta,FI,18.55,61.06,28.19,72.0,90.0,8.05,1551489700.0
382,Napoleon,US,-0.41,46.5,-99.77,84.0,20.0,4.47,1551489300.0
383,Alindao,CF,68.83,5.04,21.21,98.0,68.0,1.34,1551489725.0
384,Kidal,ML,56.36,18.44,1.41,31.0,0.0,11.74,1551489725.0
385,Mattru,SL,78.5,7.62,-11.83,64.0,0.0,6.15,1551489725.0
386,Georgetown,GY,77.63,6.8,-58.16,78.0,20.0,11.41,1551484800.0
387,Lata,IN,35.44,30.78,78.62,69.0,88.0,2.35,1551489726.0
388,Fort Nelson,CA,-0.41,58.81,-122.69,49.0,5.0,5.82,1551488400.0
390,Kavaratti,IN,81.79,10.57,72.64,100.0,0.0,2.57,1551489727.0
391,Sobolevo,RU,18.07,54.43,31.9,78.0,88.0,15.66,1551489728.0
392,Kirakira,SB,82.51,-10.46,161.92,100.0,0.0,3.91,1551489728.0
394,Natal,BR,79.68,-5.81,-35.21,83.0,40.0,6.93,1551488400.0
395,Egvekinot,RU,23.06,66.32,-179.17,90.0,80.0,12.75,1551489728.0
397,Cap Malheureux,MU,80.29,-19.98,57.61,83.0,40.0,6.93,1551489540.0
398,Tuam,IE,41.36,53.52,-8.85,95.0,0.0,5.37,1551489491.0
399,Henties Bay,NA,66.0,-22.12,14.28,85.0,36.0,1.01,1551488533.0
401,Auki,NG,76.39,12.18,6.51,27.0,88.0,8.05,1551489730.0
402,Kindu,CD,70.99,-2.95,25.92,98.0,48.0,0.67,1551489730.0
403,Borogontsy,RU,-16.41,62.67,131.17,70.0,20.0,3.13,1551489730.0
404,Klyuchi,RU,14.92,52.25,79.17,75.0,76.0,2.91,1551489731.0
405,Mnogovershinnyy,RU,5.74,53.94,139.92,72.0,0.0,2.57,1551489731.0
406,Northam,GB,49.28,51.04,-4.21,100.0,75.0,11.41,1551489648.0
407,Peleduy,RU,9.38,59.63,112.75,73.0,32.0,2.46,1551489732.0
408,Changtu,CN,36.61,42.78,124.11,39.0,0.0,11.41,1551489732.0
409,Praia da Vitoria,PT,60.44,38.73,-27.07,82.0,40.0,22.48,1551489339.0
411,Saint George,GR,47.52,39.45,22.34,75.0,40.0,4.14,1551489216.0
412,Totma,RU,8.98,59.98,42.76,82.0,64.0,5.48,1551489733.0
413,Santa Marta,CO,86.0,11.24,-74.21,58.0,75.0,13.87,1551484800.0
414,Leningradskiy,RU,18.83,69.38,178.42,77.0,0.0,20.02,1551489723.0
415,Mumford,GH,79.36,5.26,-0.76,88.0,44.0,8.39,1551489257.0
416,Vila do Maio,CV,68.0,15.13,-23.22,64.0,0.0,23.04,1551488400.0
417,Viedma,AR,59.83,-40.81,-62.99,77.0,68.0,19.69,1551489508.0
418,Beisfjord,NO,19.9,68.38,17.6,92.0,88.0,12.75,1551489431.0
419,Quimper,FR,51.04,48.0,-4.1,93.0,90.0,11.41,1551489725.0
420,Yerbogachen,RU,9.07,61.28,108.01,81.0,64.0,4.7,1551489658.0
422,Bilibino,RU,-6.24,68.06,166.44,67.0,56.0,3.24,1551489706.0
423,Kon Tum,VN,60.91,14.36,108.0,91.0,12.0,2.35,1551489735.0
424,Zabol,IR,55.4,31.03,61.49,82.0,75.0,20.8,1551484800.0
425,Casas Grandes,MX,76.48,30.15,-110.24,16.0,0.0,3.13,1551489735.0
426,Chepareria,KE,49.3,1.32,35.2,80.0,0.0,0.67,1551489736.0
427,Hobyo,SO,76.66,5.35,48.53,93.0,80.0,10.18,1551489736.0
428,Nalut,LY,41.51,31.86,10.98,71.0,0.0,5.59,1551489736.0
429,Severobaykalsk,RU,4.12,55.65,109.32,62.0,24.0,1.57,1551489736.0
430,Mocuba,MZ,78.01,-16.84,36.99,86.0,76.0,3.69,1551489736.0
431,Lhokseumawe,ID,81.79,5.18,97.15,100.0,12.0,3.69,1551489737.0
432,Saint-Augustin,FR,48.04,44.83,-0.61,93.0,90.0,5.82,1551489668.0
433,Nouadhibou,MR,64.4,20.93,-17.03,72.0,0.0,17.22,1551488400.0
434,Banjar,ID,72.34,-7.37,108.54,95.0,44.0,2.68,1551489737.0
435,Vinh,VN,70.76,18.67,105.69,92.0,56.0,2.01,1551489541.0
436,Port Hueneme,US,57.18,34.15,-119.2,72.0,90.0,8.05,1551489737.0
437,Flinders,AU,77.16,-34.58,150.85,73.0,75.0,6.93,1551489656.0
438,Ardmore,US,44.67,34.99,-86.85,87.0,90.0,4.7,1551489527.0
439,Bozhou,CN,40.57,33.86,115.78,95.0,88.0,7.83,1551489738.0
440,Garhshankar,IN,47.63,31.22,76.14,72.0,92.0,3.36,1551489738.0
441,Isangel,VU,84.2,-19.55,169.27,70.0,75.0,11.41,1551484800.0
442,Luanda,AO,78.8,-8.83,13.24,88.0,75.0,4.7,1551484800.0
443,Vostochnyy,RU,18.21,55.82,37.87,85.0,0.0,13.42,1551488739.0
444,Quartucciu,IT,54.91,39.25,9.18,66.0,20.0,9.17,1551489306.0
445,Coahuayana,MX,85.39,18.62,-100.35,28.0,0.0,2.91,1551489739.0
447,Batagay,RU,-26.8,67.65,134.64,40.0,64.0,2.91,1551489739.0
448,Gambela,ET,62.66,8.25,34.59,84.0,56.0,3.69,1551489739.0
449,Sao Felix do Xingu,BR,74.05,-6.64,-51.99,94.0,88.0,2.91,1551489739.0
450,Guerrero Negro,MX,65.41,27.97,-114.04,67.0,48.0,11.41,1551489740.0
451,Alamosa,US,39.4,37.47,-105.87,52.0,1.0,14.99,1551489516.0
452,Vao,EE,12.31,59.1,26.19,84.0,32.0,5.93,1551489740.0
453,Tabuk,PH,64.33,17.41,121.44,86.0,0.0,2.13,1551489741.0
454,Shahreza,IR,9.79,32.01,51.87,76.0,0.0,2.68,1551489741.0
455,Pevek,RU,-0.03,69.7,170.27,95.0,64.0,4.14,1551489649.0
456,Kavieng,PG,83.9,-2.57,150.8,100.0,32.0,4.59,1551489732.0
457,Deputatskiy,RU,-20.55,69.3,139.9,55.0,48.0,2.8,1551489741.0
458,Coihaique,CL,56.93,-45.58,-72.07,58.0,40.0,6.93,1551484800.0
460,Tutoia,BR,79.18,-2.76,-42.27,85.0,92.0,7.61,1551489742.0
461,Luderitz,NA,63.38,-26.65,15.16,75.0,0.0,18.01,1551489725.0
462,Mercedes,UY,75.67,-33.25,-58.03,58.0,0.0,11.74,1551489713.0
463,Ancud,CL,55.4,-41.87,-73.83,76.0,20.0,8.05,1551484800.0
464,Erenhot,CN,12.53,43.65,111.97,65.0,0.0,4.92,1551489743.0
465,Todireni,RO,35.08,47.62,27.11,80.0,0.0,10.29,1551489320.0
466,Vardo,US,32.0,39.62,-77.74,80.0,90.0,6.93,1551489697.0
467,Caibarien,CU,75.2,22.52,-79.47,69.0,40.0,5.82,1551484380.0
468,Broome,GB,44.01,52.47,1.45,93.0,88.0,8.05,1551489739.0
469,Nanortalik,GL,32.47,60.14,-45.24,90.0,68.0,12.64,1551489744.0
470,Lorengau,PG,83.81,-2.02,147.27,95.0,68.0,6.71,1551489280.0
471,Sangar,RU,-20.32,63.92,127.47,57.0,0.0,1.68,1551489745.0
472,Bandarbeyla,SO,76.61,9.49,50.81,100.0,24.0,7.94,1551489745.0
473,Chifeng,CN,32.33,42.27,118.96,71.0,0.0,6.6,1551489745.0
474,Lakatoro,VU,77.65,-16.11,167.42,100.0,92.0,6.71,1551489746.0
475,Archidona,EC,61.72,-0.91,-77.81,95.0,68.0,2.91,1551489746.0
476,Bonthe,SL,78.19,7.53,-12.5,82.0,8.0,4.47,1551489460.0
477,Kisangani,CD,73.6,0.52,25.21,96.0,76.0,2.24,1551489736.0
478,Baruun-Urt,MN,13.66,46.68,113.28,71.0,8.0,3.36,1551489746.0
479,Rantepao,ID,69.55,-2.97,119.9,100.0,80.0,2.13,1551489747.0
480,Lagunillas,VE,66.94,8.5,-71.39,67.0,88.0,0.34,1551489747.0
481,Prainha,BR,76.57,-1.8,-53.48,92.0,44.0,4.81,1551489747.0
483,Killybegs,IE,39.0,54.63,-8.45,97.0,64.0,1.99,1551489727.0
484,Najran,SA,68.0,17.54,44.22,32.0,5.0,4.81,1551484800.0
485,Maroantsetra,MG,73.33,-15.43,49.74,100.0,92.0,2.91,1551489748.0
486,Aquiraz,BR,81.61,-3.9,-38.39,83.0,20.0,4.7,1551489489.0
488,Baykit,RU,10.91,61.68,96.39,79.0,68.0,2.68,1551489748.0
489,Anloga,GH,77.0,5.79,0.9,88.0,20.0,1.12,1551484800.0
490,Vestmanna,FO,44.6,62.16,-7.17,100.0,92.0,13.87,1551487800.0
491,Muros,ES,53.37,42.77,-9.06,93.0,75.0,4.7,1551489692.0
492,Padang,ID,75.2,-0.92,100.36,100.0,40.0,2.24,1551484800.0
493,Gashua,NG,80.26,12.87,11.04,56.0,68.0,2.8,1551489750.0
495,Komatipoort,MZ,73.47,-25.43,31.96,94.0,92.0,3.8,1551489421.0
496,Predivinsk,RU,23.83,57.07,93.44,86.0,68.0,2.57,1551489751.0
497,Aitape,PG,82.1,-3.15,142.36,91.0,64.0,5.93,1551489751.0
498,Pryazha,RU,14.0,61.69,33.62,78.0,48.0,4.47,1551484800.0
499,Faqirwali,PK,60.1,29.47,73.04,56.0,48.0,12.08,1551489751.0
500,Makakilo City,US,72.19,21.35,-158.09,53.0,90.0,8.05,1551489631.0
501,Avanigadda,IN,75.2,16.02,80.92,94.0,12.0,6.38,1551486600.0
502,Ambovombe,MG,77.56,-25.18,46.09,96.0,44.0,2.01,1551489752.0
503,Inuvik,CA,-1.14,68.36,-133.71,49.0,5.0,5.82,1551488400.0
504,Mimongo,GA,70.54,-1.62,11.6,98.0,92.0,0.34,1551489752.0
505,Chute-aux-Outardes,CA,19.11,49.12,-68.38,72.0,1.0,11.41,1551489465.0
506,Uromi,NG,76.3,6.71,6.33,92.0,68.0,4.92,1551489753.0
507,Hovd,NO,36.03,63.83,10.7,80.0,75.0,27.51,1551489601.0
509,Young,UY,75.0,-32.7,-57.63,63.0,0.0,10.07,1551489131.0
510,Havelock,US,56.12,34.88,-76.9,100.0,90.0,8.05,1551489682.0
511,Clyde River,CA,3.2,70.47,-68.59,65.0,1.0,18.34,1551488400.0
512,Zuenoula,CI,73.01,7.43,-6.04,33.0,12.0,5.93,1551489754.0
513,Port Hardy,CA,42.8,50.7,-127.42,76.0,20.0,3.36,1551488400.0
514,Ballina,IE,40.78,54.11,-9.15,97.0,12.0,1.99,1551489727.0
515,Vigrestad,NO,33.8,58.57,5.7,80.0,40.0,8.05,1551489409.0
516,Baherden,TM,37.1,38.44,57.43,92.0,12.0,2.46,1551489755.0
517,Iralaya,HN,78.8,15.0,-83.23,78.0,40.0,10.29,1551484800.0
518,Flin Flon,CA,-7.61,54.77,-101.88,63.0,90.0,8.05,1551484800.0
519,Copiapo,CL,64.4,-27.37,-70.33,77.0,90.0,11.41,1551484800.0
520,Knevichi,RU,30.2,43.4,132.19,46.0,0.0,2.24,1551486600.0
521,Port Hedland,AU,91.4,-20.31,118.58,55.0,48.0,8.05,1551486600.0
522,Nanga Eboko,CM,76.84,4.68,12.37,56.0,80.0,7.27,1551489756.0
524,Kaliua,TZ,63.34,-5.06,31.79,94.0,48.0,2.35,1551489756.0
525,San Patricio,PY,68.78,-26.98,-56.83,76.0,0.0,2.68,1551489758.0
526,Torbat-e Jam,IR,38.81,35.24,60.63,96.0,92.0,2.91,1551489466.0
527,Yagodnoye,RU,-6.24,62.52,149.63,64.0,48.0,2.46,1551489759.0
528,Goderich,CA,22.26,43.74,-81.71,73.0,24.0,3.0,1551489539.0
529,Ixtapa,MX,76.15,20.71,-105.21,78.0,5.0,11.41,1551489022.0
530,Polazna,RU,28.4,58.29,56.41,86.0,0.0,6.71,1551486600.0
531,Kalangala,UG,71.6,-0.32,32.29,83.0,20.0,4.7,1551488400.0
532,Salmon Creek,US,47.28,45.71,-122.66,52.0,20.0,10.29,1551489751.0
533,Nago,IT,39.58,45.88,10.89,93.0,0.0,1.12,1551489748.0
536,Sao Joao de Pirabas,BR,78.05,-0.77,-47.18,100.0,92.0,8.72,1551489763.0
537,Birao,CF,71.89,10.3,22.78,35.0,0.0,7.83,1551489765.0
538,Saint-Georges,CA,13.03,46.12,-70.67,71.0,0.0,4.03,1551489424.0
539,Xalatlaco,MX,76.01,19.18,-99.41,11.0,5.0,6.93,1551489185.0
540,Ostersund,SE,32.0,63.18,14.64,73.0,64.0,11.41,1551489696.0
541,Lufilufi,WS,89.26,-13.87,-171.6,70.0,75.0,9.17,1551486784.0
542,Kaoma,ZM,67.84,-14.8,24.8,73.0,20.0,3.58,1551489766.0
543,Colonia,RO,41.97,46.6,23.97,75.0,90.0,9.17,1551488400.0
544,Katubao,PH,82.4,5.89,124.83,61.0,20.0,9.17,1551484800.0
545,Hamilton,BM,65.44,32.3,-64.78,88.0,75.0,6.93,1551489522.0
546,Juybar,IR,44.6,36.64,52.91,100.0,40.0,2.24,1551484800.0
547,Mecca,SA,51.82,21.43,39.83,78.0,20.0,4.36,1551489252.0
548,Paraiso,MX,75.81,24.01,-104.61,11.0,5.0,17.22,1551489615.0
549,Palu,ID,68.92,-0.9,119.87,87.0,0.0,1.9,1551489768.0
550,Tsumeb,NA,69.64,-19.25,17.72,60.0,0.0,4.59,1551489768.0
551,Chiang Klang,TH,66.2,19.29,100.86,100.0,20.0,2.24,1551484800.0
552,Yumen,CN,15.91,40.29,97.04,60.0,0.0,5.14,1551489769.0
553,Orlik,RU,-7.41,52.51,99.83,48.0,0.0,2.24,1551489769.0
554,Aklavik,CA,-0.57,68.22,-135.01,49.0,5.0,5.82,1551488400.0
555,Vilyuysk,RU,4.3,63.75,121.63,78.0,76.0,3.69,1551489771.0
556,Pingliang,CN,29.81,35.54,106.68,94.0,92.0,2.91,1551489771.0
558,Alghero,IT,57.2,40.56,8.32,67.0,0.0,10.29,1551487800.0
559,Muana,BR,75.8,-1.53,-49.22,100.0,56.0,3.24,1551489630.0
560,Mairana,BO,61.13,-18.12,-63.96,94.0,36.0,2.57,1551489772.0
561,Gravdal,NO,32.72,59.79,5.78,100.0,48.0,8.05,1551489727.0
562,Lensk,RU,12.76,60.71,114.91,80.0,56.0,2.68,1551489772.0
564,Susanville,US,39.34,40.42,-120.65,70.0,90.0,8.05,1551489748.0
565,Luganville,VU,79.18,-15.51,167.18,100.0,92.0,6.49,1551489772.0
566,Lagoa,PT,54.59,37.14,-8.45,87.0,20.0,10.29,1551489128.0
567,Umm Kaddadah,SD,64.96,13.6,26.69,16.0,0.0,9.62,1551489773.0
568,Kysyl-Syr,RU,-5.02,63.9,122.77,80.0,44.0,3.69,1551489773.0
569,Magadan,RU,5.96,59.56,150.8,100.0,0.0,11.86,1551489773.0
570,Novyy Urgal,RU,5.38,51.07,132.56,56.0,0.0,2.68,1551489773.0
571,Pangai,TO,86.0,-19.8,-174.35,84.0,20.0,10.29,1551484800.0
572,Solwezi,ZM,62.89,-12.18,26.4,95.0,64.0,3.47,1551489774.0
573,Palmer,AU,97.84,-34.85,139.16,12.0,0.0,19.46,1551489619.0
575,Reconquista,AR,75.76,-29.14,-59.64,52.0,0.0,6.93,1551489775.0
576,Barabai,ID,74.59,-2.59,115.38,97.0,92.0,2.8,1551489775.0
577,Prokuplje,RS,41.0,43.23,21.59,75.0,75.0,1.12,1551486600.0
578,Dakoro,NE,68.51,14.51,6.76,33.0,88.0,8.61,1551489776.0
579,Nalagarh,IN,45.65,31.04,76.72,52.0,80.0,3.36,1551489776.0
580,Sabla,NG,72.43,12.75,4.71,51.0,56.0,3.36,1551489776.0
581,Adra,IN,47.81,23.5,86.68,84.0,0.0,2.91,1551489776.0
582,Waingapu,ID,77.92,-9.65,120.26,94.0,20.0,4.14,1551489777.0
583,Shuyskoye,RU,8.48,59.37,41.03,77.0,64.0,5.03,1551489777.0
584,Tambovka,UA,33.01,46.93,35.45,78.0,56.0,10.96,1551489777.0
585,Alice Springs,AU,93.2,-23.7,133.88,23.0,0.0,16.11,1551486600.0
586,Aldan,RU,14.65,58.61,125.39,87.0,64.0,2.68,1551489777.0
587,Sorong,ID,80.75,-0.86,131.25,100.0,64.0,8.28,1551489778.0
588,Olot,UZ,50.0,39.42,63.81,81.0,20.0,6.93,1551486600.0
590,Namatanai,PG,84.4,-3.66,152.44,94.0,0.0,8.72,1551489778.0
591,Puerto Escondido,MX,82.06,15.86,-97.07,100.0,0.0,7.61,1551489778.0
592,Guilin,CN,48.2,25.28,110.29,93.0,90.0,6.71,1551484800.0
593,Urucui,BR,73.28,-7.23,-44.56,94.0,80.0,2.91,1551489779.0
594,Ushtobe,KZ,23.51,45.25,77.98,70.0,92.0,2.68,1551489783.0
595,Kieta,PG,82.06,-6.22,155.63,98.0,20.0,3.13,1551489783.0
596,Villaviciosa,ES,51.75,43.48,-5.43,93.0,44.0,3.36,1551489651.0
597,Lishu,CN,34.99,43.31,124.32,39.0,0.0,16.33,1551489784.0
