,City,Country,Temperature,Latitude,Longitude,Humidity,Cloudiness,Wind Speed,Date
0,Neuquen,AR,77.0,-38.95,-68.06,27.0,0.0,9.17,1551481200.0
1,Carnarvon,ZA,54.16,-30.97,22.13,73.0,0.0,2.8,1551483998.0
2,Hamilton,CA,26.83,43.26,-79.87,53.0,1.0,3.36,1551483774.0
4,Puerto Ayora,EC,86.0,-0.74,-90.35,66.0,20.0,8.05,1551481200.0
5,Mataura,NZ,60.01,-46.19,168.86,70.0,0.0,11.99,1551483605.0
8,Batagay,RU,-26.8,67.65,134.64,40.0,64.0,2.91,1551484002.0
9,Lazaro Cardenas,MX,80.82,28.39,-105.62,18.0,40.0,14.99,1551483845.0
10,Port Hardy,CA,41.0,50.7,-127.42,76.0,40.0,3.36,1551481200.0
11,Nanortalik,GL,32.47,60.14,-45.24,90.0,68.0,12.64,1551484005.0
13,Husavik,CA,8.01,50.56,-96.99,60.0,0.0,4.36,1551483894.0
14,Georgetown,GY,77.0,6.8,-58.16,83.0,20.0,6.93,1551481200.0
15,Hobart,AU,89.08,-42.88,147.33,26.0,0.0,11.41,1551483905.0
16,Ucluelet,CA,44.26,48.94,-125.55,56.0,20.0,8.05,1551483525.0
17,Tangi,PK,43.76,34.3,71.65,99.0,92.0,2.68,1551484008.0
18,Ribeira Grande,PT,60.8,38.52,-28.7,87.0,75.0,12.75,1551481200.0
19,San Cristobal,EC,57.52,-0.39,-78.55,72.0,75.0,5.82,1551483912.0
20,Salgueiro,BR,81.07,-8.07,-39.12,52.0,92.0,4.03,1551484010.0
21,Hasaki,JP,42.91,35.73,140.83,100.0,20.0,12.75,1551483275.0
22,Nikolskoye,RU,15.89,59.7,30.79,78.0,0.0,4.47,1551483934.0
23,Ushuaia,AR,51.8,-54.81,-68.31,76.0,75.0,6.93,1551481200.0
24,Airai,TL,74.81,-8.93,125.41,91.0,44.0,0.56,1551484011.0
25,Mount Gambier,AU,89.6,-37.83,140.78,19.0,0.0,16.11,1551481200.0
26,Kahului,US,73.4,20.89,-156.47,41.0,40.0,13.87,1551483822.0
27,Busselton,AU,55.99,-33.64,115.35,47.0,44.0,7.16,1551483610.0
28,Mahebourg,MU,80.26,-20.41,57.7,88.0,40.0,11.41,1551483840.0
29,Ereymentau,KZ,11.9,51.62,73.1,71.0,76.0,2.91,1551484015.0
30,Upernavik,GL,2.5,72.79,-56.15,100.0,44.0,9.95,1551483780.0
31,Port Hedland,AU,84.2,-20.31,118.58,79.0,48.0,4.7,1551481200.0
32,Atuona,PF,80.71,-9.8,-139.03,100.0,0.0,6.71,1551484016.0
33,East London,ZA,71.3,-33.02,27.91,100.0,88.0,4.03,1551484017.0
34,Punta Arenas,CL,50.0,-53.16,-70.91,87.0,75.0,3.36,1551483789.0
35,Bambous Virieux,MU,80.28,-20.34,57.76,88.0,40.0,11.41,1551483840.0
36,Albany,US,28.67,42.65,-73.75,63.0,1.0,4.7,1551483462.0
37,Tura,IN,44.71,25.52,90.21,73.0,0.0,2.24,1551484019.0
38,Tuatapere,NZ,60.01,-46.13,167.69,70.0,0.0,11.99,1551483605.0
39,Bredasdorp,ZA,58.44,-34.53,20.04,82.0,44.0,3.36,1551483985.0
40,Tuktoyaktuk,CA,-4.01,69.44,-133.03,70.0,5.0,18.34,1551481200.0
41,Vila,IT,49.41,45.18,8.4,36.0,0.0,10.29,1551484024.0
42,Taltal,CL,63.83,-25.41,-70.49,75.0,8.0,2.57,1551484026.0
43,Cape Town,ZA,66.16,-33.93,18.42,82.0,0.0,5.82,1551483770.0
44,Creel,MX,66.4,27.75,-107.63,29.0,0.0,4.92,1551484042.0
45,Blagodatnoye,RU,26.01,51.57,35.54,90.0,88.0,5.01,1551483959.0
46,Norman Wells,CA,3.2,65.28,-126.83,54.0,5.0,19.46,1551481200.0
47,Saint-Pierre,FR,44.92,48.95,4.24,93.0,75.0,5.82,1551484025.0
48,Zhigansk,RU,-6.78,66.77,123.37,74.0,56.0,3.58,1551484045.0
50,Vaini,IN,56.05,15.34,74.49,71.0,0.0,2.35,1551483820.0
51,Hermanus,ZA,61.86,-34.42,19.24,94.0,0.0,2.57,1551483985.0
53,Port Elizabeth,US,34.9,39.31,-74.98,100.0,90.0,12.75,1551484021.0
54,Hualmay,PE,73.42,-11.1,-77.61,73.0,76.0,4.14,1551484053.0
55,Karratha,AU,84.08,-20.74,116.85,57.0,0.0,4.36,1551484053.0
56,Bireun,ID,80.3,5.2,96.7,100.0,24.0,3.69,1551484053.0
57,Zambezi,ZM,67.48,-13.55,23.12,86.0,20.0,3.58,1551484054.0
58,Kodiak,US,33.13,39.95,-94.76,69.0,40.0,6.93,1551483725.0
59,Kapaa,US,72.66,22.08,-159.32,44.0,40.0,14.99,1551483980.0
60,Sola,FI,20.28,62.78,29.36,79.0,90.0,4.7,1551484027.0
61,Cherskiy,RU,-7.9,68.75,161.3,77.0,68.0,6.6,1551484056.0
62,Rikitea,PF,77.83,-23.12,-134.97,100.0,64.0,12.19,1551484057.0
63,Pisco,PE,71.6,-13.71,-76.2,30.0,0.0,20.8,1551481200.0
64,Faanui,PF,82.06,-16.48,-151.75,100.0,88.0,6.15,1551484058.0
65,Mar del Plata,AR,61.81,-46.43,-67.52,68.0,32.0,6.04,1551484058.0
66,Gat,SN,75.2,14.69,-16.54,15.0,0.0,13.87,1551483000.0
68,Salym,RU,21.53,60.06,71.48,84.0,92.0,9.17,1551484062.0
69,Avarua,CK,86.0,-21.21,-159.78,74.0,76.0,10.29,1551481200.0
70,Bluff,AU,81.61,-23.58,149.07,49.0,0.0,12.75,1551483802.0
71,Rawson,AR,58.48,-43.3,-65.11,67.0,24.0,4.25,1551484062.0
72,Sisimiut,GL,6.86,66.94,-53.67,67.0,56.0,2.35,1551484065.0
73,Port Alfred,ZA,66.99,-33.59,26.89,82.0,32.0,1.99,1551484004.0
74,Cidreira,BR,73.01,-30.17,-50.22,81.0,76.0,12.53,1551484066.0
75,Saint George,GR,39.2,39.45,22.34,80.0,0.0,4.14,1551480600.0
76,Tabou,CI,83.63,4.42,-7.36,95.0,44.0,6.71,1551484068.0
77,Tataranu,RO,32.6,45.52,27.32,77.0,56.0,3.36,1551484068.0
78,Clyde River,CA,3.2,70.47,-68.59,71.0,5.0,18.34,1551481200.0
79,Severo-Kurilsk,RU,24.19,50.68,156.12,100.0,36.0,8.39,1551484069.0
81,Hilo,US,67.93,19.71,-155.08,47.0,90.0,11.41,1551483917.0
83,Kenai,US,30.72,60.55,-151.26,63.0,1.0,2.8,1551484025.0
84,Saskylakh,RU,-27.97,71.97,114.09,43.0,8.0,3.36,1551484072.0
85,Egvekinot,RU,23.06,66.32,-179.17,90.0,80.0,12.75,1551484073.0
86,Soe,EE,17.26,57.91,26.05,85.0,0.0,6.93,1551483675.0
87,Lompoc,US,58.01,34.64,-120.46,59.0,90.0,3.36,1551484053.0
88,Kungurtug,RU,-3.9,50.6,97.53,51.0,48.0,2.35,1551484073.0
89,Balkanabat,TM,32.65,39.51,54.36,88.0,24.0,4.14,1551484073.0
90,Kharan,PK,49.12,28.58,65.42,97.0,92.0,9.4,1551484076.0
91,Vao,EE,12.31,59.1,26.19,84.0,32.0,5.93,1551484076.0
92,Magadan,RU,5.96,59.56,150.8,100.0,0.0,11.86,1551484077.0
93,Jamestown,AU,87.5,-33.21,138.6,29.0,0.0,7.94,1551484079.0
94,Qaanaaq,GL,-17.04,77.48,-69.36,71.0,0.0,4.59,1551484081.0
96,Antalaha,MG,77.78,-14.9,50.28,97.0,80.0,6.38,1551484082.0
97,Torbay,CA,19.78,47.66,-52.73,62.0,75.0,21.92,1551483943.0
98,Talnakh,RU,10.24,69.49,88.39,84.0,76.0,18.79,1551484084.0
99,Barahona,DO,78.8,18.21,-71.1,78.0,40.0,18.34,1551481200.0
100,Chokurdakh,RU,-22.39,70.62,147.9,33.0,48.0,5.37,1551484088.0
101,Ledyard,US,32.07,41.44,-72.02,88.0,75.0,6.6,1551484086.0
102,Atar,MR,60.73,20.52,-13.05,19.0,0.0,9.62,1551484092.0
103,Casa Nova,BR,80.26,-11.77,-39.23,63.0,0.0,11.52,1551484092.0
104,Souillac,FR,45.99,45.6,-0.6,93.0,90.0,5.82,1551484088.0
105,Bethel,US,35.62,60.79,-161.76,93.0,90.0,11.41,1551482640.0
107,Port Lincoln,AU,73.69,-34.72,135.86,82.0,8.0,6.93,1551484097.0
109,Port Moresby,PG,82.15,-9.47,147.16,98.0,56.0,13.87,1551484097.0
110,Lashio,MM,51.19,22.93,97.75,90.0,0.0,1.79,1551484097.0
111,Praia,BR,67.89,-20.25,-43.81,88.0,90.0,2.24,1551481200.0
112,Coquimbo,CL,62.6,-29.95,-71.34,72.0,20.0,4.81,1551481200.0
113,Aksarka,RU,-12.99,66.56,67.8,59.0,44.0,3.36,1551484100.0
114,Amapa,HN,84.2,15.09,-87.97,62.0,20.0,20.8,1551481200.0
115,Nishihara,JP,49.93,35.74,139.53,36.0,1.0,11.41,1551483953.0
116,Den Helder,NL,40.87,52.96,4.76,75.0,90.0,8.05,1551484088.0
117,Broome,GB,44.85,52.47,1.45,93.0,88.0,8.05,1551484086.0
118,Chuy,UY,75.53,-33.69,-53.46,58.0,44.0,11.41,1551484003.0
119,Talara,PE,81.11,-4.58,-81.27,59.0,24.0,8.95,1551484102.0
121,San Patricio,PY,68.78,-26.98,-56.83,76.0,0.0,2.68,1551483994.0
122,Longyearbyen,NO,5.0,78.22,15.63,71.0,40.0,8.05,1551480600.0
123,Thompson,CA,-5.81,55.74,-97.86,58.0,75.0,6.93,1551481200.0
124,Butaritari,KI,82.15,3.07,172.79,100.0,56.0,15.77,1551483809.0
125,Castro,CL,59.0,-42.48,-73.76,72.0,40.0,9.17,1551481200.0
127,Iqaluit,CA,-7.3,63.75,-68.52,69.0,40.0,28.86,1551483765.0
128,Yerbogachen,RU,9.07,61.28,108.01,81.0,64.0,4.7,1551484110.0
129,Ostrovnoy,RU,14.65,68.05,39.51,89.0,68.0,11.07,1551484110.0
130,Pevek,RU,-0.03,69.7,170.27,95.0,64.0,4.14,1551484110.0
131,Sao Filipe,CV,72.43,14.9,-24.5,87.0,0.0,17.22,1551484111.0
132,Seoul,KR,29.53,37.57,126.98,80.0,1.0,3.36,1551482400.0
133,Teresina,BR,77.0,-5.09,-42.81,83.0,75.0,5.82,1551481200.0
134,Tiksi,RU,-10.29,71.64,128.87,69.0,48.0,2.91,1551483853.0
135,Tautira,PF,88.25,-17.73,-149.15,62.0,40.0,6.93,1551483785.0
137,Daru,SL,73.91,7.99,-10.85,65.0,0.0,7.38,1551484039.0
139,Yellowknife,CA,-5.81,62.45,-114.38,53.0,75.0,9.17,1551481200.0
140,Kununurra,AU,84.2,-15.77,128.74,66.0,0.0,8.05,1551481200.0
141,Esperance,TT,77.97,10.24,-61.45,69.0,20.0,6.93,1551483973.0
143,Ovalle,CL,66.31,-30.6,-71.2,85.0,0.0,2.68,1551484119.0
146,Raudeberg,NO,37.08,61.99,5.14,74.0,92.0,10.29,1551483907.0
147,Ancud,CL,59.0,-41.87,-73.83,72.0,40.0,9.17,1551481200.0
148,Hanmer Springs,NZ,66.4,-42.52,172.83,38.0,0.0,3.02,1551484125.0
149,Kargasok,RU,16.99,59.06,80.87,84.0,68.0,5.37,1551483959.0
150,Saldanha,PT,43.4,41.42,-6.55,89.0,8.0,6.15,1551484127.0
151,Muli,IN,55.1,22.62,71.45,58.0,24.0,3.69,1551484127.0
152,Aldan,RU,14.65,58.61,125.39,87.0,64.0,2.68,1551484128.0
153,Lebu,ET,46.87,8.96,38.73,83.0,36.0,2.8,1551483896.0
154,Oxapampa,PE,53.62,-10.58,-75.4,100.0,92.0,1.57,1551484128.0
155,Los Llanos de Aridane,ES,59.52,28.66,-17.92,68.0,36.0,11.41,1551483011.0
156,Tarko-Sale,RU,14.0,64.92,77.78,88.0,68.0,7.0,1551483861.0
157,Guerrero Negro,MX,65.41,27.97,-114.04,67.0,48.0,11.41,1551484130.0
158,Flinders,AU,75.99,-34.58,150.85,83.0,40.0,5.82,1551484031.0
159,San Quintin,PH,72.11,17.54,120.52,68.0,0.0,4.03,1551484131.0
160,Dubrovnik,HR,46.47,42.65,18.09,87.0,0.0,8.05,1551483000.0
161,Tasiilaq,GL,19.4,65.61,-37.64,73.0,48.0,38.03,1551480600.0
162,Dhidhdhoo,MV,82.06,6.88,73.1,100.0,8.0,6.6,1551484132.0
163,Viedma,AR,59.83,-40.81,-62.99,77.0,68.0,19.69,1551484134.0
164,Dikson,RU,-2.5,73.51,80.55,83.0,48.0,22.7,1551484138.0
165,Sabang,PH,76.88,13.72,123.58,88.0,56.0,8.16,1551484139.0
166,Balkhash,KZ,31.16,46.84,74.98,89.0,64.0,6.93,1551484139.0
167,Bongued,PH,80.8,7.12,124.4,84.0,0.0,3.13,1551484139.0
169,Avera,US,64.2,33.19,-82.53,88.0,40.0,5.82,1551484135.0
170,Kurchum,KZ,17.21,48.57,83.65,70.0,56.0,1.9,1551484140.0
172,Sahuaripa,MX,74.45,29.05,-109.23,34.0,0.0,2.01,1551483890.0
173,Aloleng,PH,76.57,16.13,119.78,91.0,36.0,10.4,1551484142.0
174,Plettenberg Bay,ZA,64.15,-34.05,23.37,100.0,20.0,4.36,1551484143.0
176,Sao Joao da Barra,BR,78.8,-21.64,-41.05,88.0,75.0,24.05,1551481200.0
177,Launceston,AU,78.35,-41.43,147.14,50.0,0.0,3.36,1551483974.0
178,Linxia,CN,11.59,35.6,103.21,65.0,0.0,3.02,1551484156.0
179,Rocha,UY,72.52,-34.48,-54.34,50.0,0.0,10.18,1551484157.0
180,Half Moon Bay,US,55.81,37.46,-122.43,71.0,75.0,3.36,1551484145.0
181,Arfara,GR,45.97,37.15,22.03,93.0,20.0,1.79,1551483944.0
182,Acajutla,SV,79.0,13.59,-89.83,82.0,8.0,5.01,1551479476.0
183,Deniliquin,AU,81.11,-35.53,144.96,57.0,0.0,12.3,1551484162.0
185,Narsaq,GL,37.4,60.91,-46.05,32.0,44.0,10.29,1551480600.0
186,Albania,CO,63.38,5.76,-73.91,97.0,56.0,1.9,1551484162.0
187,Shelburne,CA,25.59,44.08,-80.2,62.0,20.0,3.36,1551484003.0
189,Mount Isa,AU,84.2,-20.73,139.49,42.0,0.0,13.87,1551481200.0
190,Bonfim,BR,69.8,-20.33,-44.24,88.0,90.0,2.24,1551481200.0
191,Kieta,PG,82.06,-6.22,155.63,98.0,20.0,3.13,1551484165.0
192,Makakilo City,US,72.41,21.35,-158.09,53.0,90.0,5.82,1551484054.0
193,Poum,MK,25.31,41.28,20.71,80.0,32.0,2.57,1551484165.0
194,Te Anau,NZ,62.8,-45.41,167.72,51.0,0.0,3.58,1551483923.0
195,Padang,ID,75.2,-0.92,100.36,100.0,40.0,5.82,1551481200.0
197,Remedios,CU,78.8,22.5,-79.55,57.0,40.0,12.75,1551480660.0
198,Dicabisagan,PH,72.11,17.08,122.42,100.0,36.0,6.82,1551484166.0
200,Shingu,JP,44.6,33.72,135.99,56.0,0.0,4.7,1551481200.0
201,Jipijapa,EC,82.4,-1.35,-80.58,78.0,40.0,6.93,1551481200.0
202,Pangnirtung,CA,-9.41,66.15,-65.72,76.0,40.0,3.36,1551481200.0
203,Kruisfontein,ZA,61.45,-34.0,24.73,89.0,36.0,5.7,1551483808.0
204,Bilma,NE,70.76,18.69,12.92,36.0,92.0,2.91,1551484171.0
206,Port Blair,IN,81.2,11.67,92.75,100.0,12.0,9.73,1551484172.0
207,Price,US,43.25,39.6,-110.81,52.0,1.0,3.36,1551484144.0
208,Dunedin,NZ,64.0,-45.87,170.5,60.0,0.0,5.99,1551483812.0
209,Victoria,BN,76.57,5.28,115.24,94.0,75.0,3.8,1551481200.0
210,Isabela,PH,74.9,10.2,122.99,77.0,0.0,3.58,1551483927.0
211,Muravlenko,RU,16.99,63.79,74.5,87.0,68.0,13.31,1551484173.0
212,Lagoa,PT,55.81,37.14,-8.45,82.0,0.0,16.11,1551484027.0
213,Kupang,ID,82.4,-10.16,123.6,78.0,40.0,3.36,1551481200.0
214,Cabo San Lucas,MX,77.13,22.89,-109.91,57.0,5.0,8.05,1551483937.0
215,Leningradskiy,RU,18.83,69.38,178.42,77.0,0.0,20.02,1551484178.0
216,Bouna,CI,69.37,9.27,-3.0,34.0,36.0,4.25,1551484178.0
217,Vila Franca do Campo,PT,57.97,37.72,-25.43,87.0,40.0,14.99,1551484153.0
219,Mehran,IR,30.2,33.12,46.17,92.0,40.0,2.24,1551481200.0
220,Sencha,UA,23.2,50.26,33.34,85.0,64.0,13.98,1551484182.0
221,Waipawa,NZ,61.0,-39.94,176.59,68.0,92.0,11.97,1551483316.0
222,Labuhan,ID,75.08,-2.54,115.51,91.0,92.0,0.89,1551484183.0
223,Inverell,AU,76.68,-29.78,151.11,42.0,12.0,1.01,1551484073.0
225,Thanh Hoa,VN,71.6,10.21,106.33,100.0,20.0,8.84,1551481200.0
226,Vostok,RU,19.73,46.45,135.83,58.0,0.0,2.91,1551484183.0
227,Vanimo,PG,82.42,-2.67,141.3,100.0,88.0,9.73,1551484184.0
229,Montepuez,MZ,69.1,-13.13,39.0,94.0,0.0,2.91,1551484185.0
230,New Norfolk,AU,89.55,-42.78,147.06,26.0,0.0,11.41,1551484041.0
231,Ketchikan,US,42.73,55.34,-131.65,65.0,1.0,9.17,1551480960.0
232,Saint-Georges,CA,16.0,46.12,-70.67,61.0,0.0,4.03,1551483933.0
233,Kropotkin,RU,34.0,45.43,40.58,92.0,68.0,15.21,1551483917.0
234,Yulara,AU,87.8,-25.24,130.99,20.0,0.0,8.05,1551481200.0
235,Matagami,NG,66.76,9.67,8.4,87.0,44.0,2.57,1551484188.0
238,Mareeba,AU,73.4,-16.99,145.42,94.0,75.0,16.11,1551483935.0
240,Hithadhoo,MV,82.73,-0.6,73.08,100.0,80.0,8.5,1551484189.0
241,Martapura,ID,77.0,-3.41,114.85,94.0,56.0,2.24,1551481200.0
242,Puerto Escondido,MX,82.4,15.86,-97.07,74.0,40.0,11.41,1551480000.0
243,Nhulunbuy,AU,80.6,-12.18,136.78,83.0,90.0,6.93,1551481200.0
244,Harper,US,64.98,30.3,-99.24,82.0,75.0,5.82,1551483992.0
245,Kigoma,TZ,75.31,-4.88,29.64,100.0,56.0,1.9,1551484198.0
246,Jarocin,PL,32.45,51.97,17.5,87.0,75.0,8.05,1551484167.0
249,Grindavik,IS,38.46,63.84,-22.43,100.0,90.0,3.36,1551483554.0
250,Tsiroanomandidy,MG,59.6,-18.77,46.05,91.0,8.0,3.69,1551484202.0
252,Nizwa,OM,54.2,22.93,57.53,70.0,0.0,2.91,1551484206.0
253,Kavaratti,IN,81.79,10.57,72.64,100.0,0.0,2.57,1551484207.0
254,Faya,SA,57.2,18.39,42.45,87.0,0.0,6.93,1551481200.0
256,Royan,FR,48.18,45.62,-1.03,93.0,90.0,5.82,1551483968.0
257,Khash,IR,48.31,28.22,61.21,97.0,88.0,17.78,1551484210.0
258,Pimentel,BR,73.33,-3.7,-45.5,97.0,80.0,2.8,1551484211.0
259,Powell River,CA,41.05,49.84,-124.52,69.0,20.0,5.82,1551484024.0
260,Okhotsk,RU,1.96,59.36,143.24,100.0,0.0,7.94,1551484128.0
261,Verkhnyaya Inta,RU,1.91,65.99,60.32,66.0,68.0,3.91,1551484212.0
262,Alofi,NU,86.0,-19.06,-169.92,79.0,75.0,8.05,1551481200.0
263,Skara,SE,25.02,58.38,13.44,100.0,0.0,4.7,1551484206.0
264,Barrow,AR,67.7,-38.31,-60.23,42.0,8.0,17.56,1551484073.0
265,Bathsheba,BB,78.8,13.22,-59.52,65.0,20.0,19.46,1551481200.0
266,Kalinin,TJ,43.0,37.18,68.22,89.0,92.0,3.36,1551484214.0
267,Arraial do Cabo,BR,75.2,-22.97,-42.02,94.0,40.0,4.7,1551481200.0
268,Khatanga,RU,-17.94,71.98,102.47,26.0,8.0,3.47,1551483806.0
269,Culleredo,ES,54.39,43.29,-8.39,87.0,75.0,1.12,1551484210.0
270,Moron,VE,72.16,10.49,-68.2,73.0,0.0,4.14,1551484215.0
271,Goderich,CA,23.63,43.74,-81.71,69.0,24.0,3.0,1551484120.0
272,Amahai,ID,84.99,-3.31,129.0,87.0,20.0,5.14,1551481038.0
273,Pangody,RU,10.28,65.85,74.49,78.0,68.0,5.7,1551484216.0
274,Lata,IN,35.44,30.78,78.62,69.0,88.0,2.35,1551484216.0
275,Sinnamary,GF,79.85,5.38,-52.96,92.0,92.0,12.19,1551484216.0
276,Ciudad Bolivar,VE,86.15,8.12,-63.55,41.0,0.0,15.55,1551484216.0
278,Ikongo,MG,68.2,-21.88,47.44,95.0,48.0,2.13,1551484217.0
279,Fairbanks,US,28.18,64.84,-147.72,62.0,1.0,2.57,1551484207.0
280,La Romana,DO,77.76,18.43,-68.97,78.0,20.0,8.05,1551481200.0
281,Copiapo,CL,64.4,-27.37,-70.33,77.0,90.0,11.41,1551481200.0
282,Gorgan,IR,46.4,36.84,54.43,93.0,75.0,1.01,1551481200.0
283,Baykalsk,RU,26.35,51.52,104.15,77.0,88.0,9.84,1551484219.0
284,Beisfjord,NO,21.85,68.38,17.6,85.0,88.0,6.93,1551484026.0
285,Emba,CY,57.85,34.81,32.42,72.0,40.0,9.17,1551483000.0
286,Puerto Ayacucho,CO,95.0,5.66,-67.63,39.0,0.0,3.24,1551481200.0
287,Kaka,TM,36.34,37.35,59.62,100.0,92.0,2.91,1551484222.0
288,Deputatskiy,RU,-20.55,69.3,139.9,55.0,48.0,2.8,1551484222.0
289,Santa Isabel do Rio Negro,BR,89.21,-0.41,-65.02,50.0,8.0,6.93,1551484222.0
290,La Rioja,AR,79.13,-29.41,-66.86,54.0,20.0,2.57,1551484223.0
293,Rampur,IN,49.7,28.8,79.03,85.0,56.0,2.01,1551484223.0
294,Pirenopolis,BR,66.2,-15.85,-48.96,93.0,40.0,2.68,1551481200.0
296,Iracoubo,GF,77.78,5.48,-53.21,75.0,92.0,6.26,1551484225.0
297,Kibondo,TZ,61.13,-3.59,30.72,91.0,8.0,3.13,1551484225.0
298,Imbituba,BR,77.0,-28.24,-48.67,78.0,20.0,2.24,1551481200.0
299,Roquetas de Mar,ES,57.07,36.76,-2.61,82.0,0.0,4.7,1551483916.0
300,Adrar,DZ,53.6,27.87,-0.29,30.0,0.0,8.05,1551481200.0
301,Sitka,US,39.99,37.17,-99.65,64.0,0.0,15.99,1551483992.0
302,Jalu,LY,45.07,29.03,21.55,62.0,24.0,5.14,1551484228.0
303,Hobyo,SO,76.66,5.35,48.53,93.0,80.0,10.18,1551484228.0
305,Zeya,RU,4.43,53.74,127.27,65.0,20.0,1.79,1551484230.0
306,Kaitangata,NZ,60.41,-46.28,169.85,74.0,0.0,10.96,1551484231.0
307,Puerto Baquerizo Moreno,EC,84.2,-0.9,-89.6,74.0,20.0,6.93,1551481200.0
308,Sturgeon Bay,US,23.18,44.83,-87.38,62.0,90.0,2.35,1551484204.0
309,Inhambane,MZ,79.31,-23.87,35.38,96.0,36.0,6.38,1551484235.0
310,Ilulissat,GL,28.4,69.22,-51.1,68.0,24.0,6.93,1551480600.0
311,Codrington,AU,72.5,-28.95,153.24,88.0,90.0,3.91,1551483975.0
312,Marawi,PH,69.55,8.0,124.29,96.0,68.0,1.12,1551484238.0
313,Provideniya,RU,27.25,64.42,-173.23,96.0,0.0,14.54,1551484241.0
314,Lusambo,CD,71.8,-4.97,23.44,96.0,44.0,1.79,1551484242.0
315,Komsomolskiy,RU,1.87,67.55,63.78,75.0,64.0,10.74,1551484242.0
317,Portland,US,50.0,45.52,-122.67,49.0,20.0,10.29,1551483607.0
318,Hirara,JP,69.8,24.8,125.28,94.0,20.0,5.82,1551481200.0
319,Mehamn,NO,17.6,71.03,27.85,72.0,0.0,17.22,1551480600.0
320,Ayan,TR,29.5,40.67,33.6,87.0,44.0,4.25,1551484245.0
321,Eyl,SO,75.04,7.98,49.82,100.0,92.0,6.15,1551484245.0
322,Quatre Cocos,MU,80.29,-20.21,57.76,88.0,40.0,11.41,1551484139.0
323,Pitea,SE,29.98,65.32,21.48,86.0,90.0,2.24,1551483709.0
324,Muroto,JP,48.2,33.37,134.14,42.0,0.0,9.17,1551481200.0
325,Ahipara,NZ,73.69,-35.17,173.16,62.0,0.0,9.62,1551484246.0
327,Shatrovo,BG,30.81,42.29,22.98,74.0,32.0,3.36,1551484169.0
329,Aripuana,BR,77.56,-9.17,-60.63,86.0,36.0,2.01,1551484096.0
330,Dawson Creek,CA,-5.81,55.76,-120.23,53.0,1.0,6.93,1551481200.0
331,Isangel,VU,80.53,-19.55,169.27,100.0,88.0,25.84,1551484247.0
332,Sretensk,RU,5.11,52.24,117.7,54.0,0.0,2.46,1551484247.0
333,Kingston,CA,24.19,44.23,-76.48,79.0,75.0,1.45,1551483994.0
334,Roros,NO,26.6,62.57,11.38,63.0,90.0,11.41,1551482400.0
335,Caravelas,BR,84.08,-17.73,-39.27,100.0,36.0,18.01,1551484248.0
336,Chapais,CA,15.8,49.78,-74.86,72.0,1.0,5.82,1551481200.0
337,Itoman,JP,65.62,26.12,127.67,77.0,20.0,3.36,1551483789.0
338,Kloulklubed,PW,77.0,7.04,134.26,88.0,75.0,3.36,1551480600.0
339,Bolitoc,PH,75.58,15.74,119.88,86.0,0.0,3.69,1551484251.0
340,Bonavista,CA,19.99,48.65,-53.11,71.0,64.0,11.01,1551484069.0
341,Kavieng,PG,83.9,-2.57,150.8,100.0,32.0,4.59,1551484235.0
342,Taoudenni,ML,49.57,22.68,-3.98,33.0,0.0,5.82,1551484252.0
343,Nome,US,62.37,30.04,-94.42,72.0,75.0,3.36,1551484214.0
344,Vardo,US,32.36,39.62,-77.74,100.0,90.0,3.36,1551484244.0
345,Yaya,RU,15.37,56.2,86.45,78.0,76.0,5.59,1551484254.0
347,Muscat,OM,77.0,23.6,58.55,61.0,40.0,6.93,1551480600.0
348,Carlos Chagas,BR,80.48,-17.7,-40.76,67.0,8.0,10.85,1551484256.0
349,Namibe,AO,76.66,-15.19,12.15,100.0,68.0,8.72,1551484256.0
350,Hambantota,LK,77.78,6.12,81.12,100.0,56.0,13.65,1551484258.0
351,Teluknaga,ID,79.23,-6.1,106.64,83.0,40.0,1.12,1551483791.0
352,Touros,BR,80.6,-5.2,-35.46,83.0,40.0,3.36,1551481200.0
353,Port Macquarie,AU,77.32,-31.43,152.91,64.0,92.0,2.24,1551483844.0
354,Port Hawkesbury,CA,18.59,45.62,-61.36,67.0,1.0,4.7,1551484257.0
355,Palmer,US,29.57,61.6,-149.11,68.0,1.0,3.36,1551484204.0
356,Erenhot,CN,12.53,43.65,111.97,65.0,0.0,4.92,1551484260.0
357,Passagem Franca,BR,73.73,-6.18,-43.78,95.0,92.0,2.01,1551484261.0
358,Sarahan,IN,4.21,31.51,77.79,93.0,80.0,1.57,1551484261.0
359,College,US,27.59,64.86,-147.8,62.0,1.0,2.57,1551484246.0
360,Isla Vista,US,58.15,34.41,-119.86,67.0,90.0,8.39,1551484257.0
361,Juegang,CN,46.0,32.31,121.18,85.0,92.0,1.99,1551484027.0
362,Vestmannaeyjar,IS,38.18,63.44,-20.27,100.0,92.0,8.95,1551484272.0
363,Yar-Sale,RU,-5.25,66.83,70.83,81.0,36.0,2.8,1551484274.0
365,Sovetskiy,RU,19.51,56.76,48.47,90.0,92.0,12.75,1551484275.0
367,Zaysan,KZ,13.25,47.47,84.87,62.0,68.0,2.91,1551484277.0
368,Lorengau,PG,83.81,-2.02,147.27,95.0,68.0,6.71,1551484281.0
369,Kirakira,SB,82.51,-10.46,161.92,100.0,0.0,3.91,1551484283.0
371,Tuensang,IN,37.55,26.24,94.81,89.0,0.0,1.12,1551484283.0
373,Quchan,IR,23.2,37.11,58.51,90.0,76.0,2.35,1551484284.0
374,Pouembout,NC,81.88,-21.12,164.9,64.0,76.0,8.84,1551484284.0
375,Salalah,OM,77.0,17.01,54.1,78.0,75.0,3.36,1551480600.0
377,Saint-Augustin,FR,47.12,44.83,-0.61,93.0,75.0,4.7,1551484269.0
378,Hokitika,NZ,63.2,-42.72,170.96,82.0,0.0,3.13,1551484286.0
379,Sembabule,UG,65.86,-0.08,31.46,74.0,8.0,6.15,1551484286.0
380,Boddam,GB,40.77,57.47,-1.78,87.0,44.0,5.82,1551484203.0
381,Aklavik,CA,0.99,68.22,-135.01,58.0,5.0,10.29,1551481200.0
382,Lapua,FI,26.28,62.97,23.01,86.0,0.0,4.7,1551484277.0
383,Yaan,NG,79.45,7.38,8.57,76.0,80.0,7.61,1551484287.0
384,Opuwo,NA,64.33,-18.06,13.84,90.0,0.0,2.91,1551484287.0
385,Ponta do Sol,BR,68.96,-20.63,-46.0,90.0,92.0,4.36,1551484287.0
386,Ambilobe,MG,75.98,-13.19,49.05,83.0,32.0,8.05,1551484288.0
387,Mariental,DE,40.6,52.28,10.99,84.0,88.0,5.01,1551484229.0
388,Gouyave,GD,78.8,12.16,-61.73,78.0,20.0,13.87,1551481200.0
389,Mitsamiouli,KM,82.15,-11.38,43.28,100.0,24.0,1.12,1551484290.0
390,Katsuura,JP,41.81,33.93,134.5,81.0,20.0,5.82,1551481200.0
391,Kalanguy,RU,2.36,51.01,116.52,52.0,0.0,2.68,1551484291.0
392,Ikot Ekpene,NG,71.71,5.18,7.71,97.0,64.0,3.13,1551484292.0
393,Jumla,NP,14.74,29.28,82.18,62.0,48.0,2.91,1551484292.0
394,Mamontovo,RU,16.27,52.71,81.63,75.0,68.0,3.02,1551484292.0
396,Debre Birhan,ET,45.79,9.68,39.53,80.0,32.0,0.78,1551484293.0
397,Meulaboh,ID,78.95,4.14,96.13,100.0,44.0,5.26,1551484293.0
398,Aksu,KZ,6.8,52.04,76.93,92.0,75.0,2.24,1551481200.0
399,Abbeville,FR,46.09,50.11,1.83,87.0,90.0,6.93,1551484207.0
400,Khuzhir,RU,12.13,53.19,107.35,79.0,32.0,1.57,1551484296.0
401,Havelock,US,57.09,34.88,-76.9,93.0,90.0,9.17,1551484210.0
402,Rypefjord,NO,14.0,70.63,23.67,61.0,0.0,6.93,1551482400.0
403,Carmen,PH,78.82,7.2,124.8,70.0,0.0,3.8,1551484297.0
404,Guayaramerin,BO,74.81,-10.82,-65.36,95.0,36.0,2.01,1551484297.0
405,Constitucion,MX,79.99,23.99,-104.67,8.0,5.0,20.8,1551484215.0
406,Sangar,RU,-20.32,63.92,127.47,57.0,0.0,1.68,1551484298.0
407,Mana,RS,42.6,43.52,20.24,70.0,0.0,1.12,1551481200.0
409,Verkh-Usugli,RU,2.59,52.7,115.17,51.0,0.0,2.35,1551484303.0
410,Fortuna,ES,54.91,38.18,-1.13,81.0,0.0,4.7,1551484298.0
411,Alice Springs,AU,87.8,-23.7,133.88,29.0,0.0,17.22,1551481200.0
412,Broken Hill,AU,87.8,-31.97,141.45,20.0,0.0,12.75,1551481200.0
413,Surt,LY,49.12,31.21,16.59,100.0,0.0,3.24,1551484305.0
414,Gladstone,AU,77.65,-23.84,151.26,78.0,75.0,4.7,1551484106.0
415,Malia,GR,51.48,35.28,25.46,87.0,20.0,10.29,1551484157.0
416,Maldonado,UY,77.0,-34.91,-54.96,53.0,0.0,12.75,1551481200.0
417,Troitsko-Pechorsk,RU,-7.68,62.71,56.19,60.0,0.0,2.46,1551484306.0
418,Ostrovskoye,RU,6.91,57.81,42.24,83.0,0.0,13.31,1551484306.0
419,Manbij,SY,37.17,36.53,37.96,74.0,0.0,6.93,1551482400.0
420,Atambua,ID,80.75,-9.11,124.89,100.0,20.0,3.47,1551484314.0
421,Belmonte,PT,44.01,40.36,-7.35,94.0,0.0,5.14,1551483916.0
422,Swellendam,ZA,59.0,-34.02,20.44,82.0,0.0,3.36,1551481200.0
423,Aleksandrovsk-Sakhalinskiy,RU,15.46,50.9,142.16,89.0,0.0,6.6,1551484316.0
424,Svetlaya,RU,28.55,46.54,138.33,88.0,0.0,12.19,1551484316.0
426,Bulgan,MN,12.08,48.81,103.53,63.0,0.0,6.6,1551484316.0
427,Walvis Bay,NA,66.72,-22.95,14.51,77.0,8.0,6.93,1551481328.0
428,Naze,NG,78.8,5.43,7.07,94.0,20.0,3.36,1551481200.0
429,Sringeri,IN,73.4,13.43,75.26,83.0,12.0,3.36,1551483000.0
430,Svetlogorsk,RU,21.2,53.14,59.15,92.0,75.0,15.66,1551481200.0
431,Ulladulla,AU,72.21,-35.36,150.48,83.0,40.0,5.82,1551484003.0
432,Altagracia de Orituco,VE,82.33,9.86,-66.38,41.0,0.0,15.99,1551484318.0
434,Floro,NO,35.31,61.6,5.03,74.0,92.0,10.29,1551484057.0
436,Jabinyanah,TN,53.6,35.03,10.91,46.0,0.0,4.7,1551481200.0
437,Benghazi,LY,59.15,32.12,20.07,100.0,68.0,18.34,1551484319.0
438,Trelew,AR,58.48,-43.25,-65.31,67.0,24.0,4.25,1551484320.0
439,Tazovskiy,RU,10.78,67.47,78.7,83.0,76.0,12.19,1551484251.0
440,Durango,US,49.39,37.28,-107.88,49.0,1.0,13.87,1551484208.0
441,Axim,GH,81.79,4.87,-2.24,100.0,44.0,7.49,1551484324.0
442,Arman,RU,3.94,59.7,150.17,59.0,0.0,8.95,1551484324.0
443,Laguna,MX,86.0,27.52,-110.01,28.0,5.0,6.93,1551480000.0
444,Brownsville,US,73.33,25.91,-97.49,69.0,75.0,11.41,1551484217.0
445,Rundu,NA,69.05,-17.91,19.77,81.0,32.0,2.57,1551484327.0
446,Cabedelo,BR,78.8,-6.97,-34.84,94.0,20.0,1.12,1551481200.0
447,Trincomalee,LK,76.3,8.58,81.23,90.0,80.0,6.38,1551484328.0
448,La Ronge,CA,-5.81,55.1,-105.3,58.0,75.0,10.29,1551481200.0
449,Yenagoa,NG,73.6,4.92,6.26,93.0,36.0,2.57,1551484332.0
450,Sur,OM,72.61,22.57,59.53,96.0,24.0,7.16,1551484332.0
451,Mala Bilozerka,UA,33.86,47.24,34.94,75.0,80.0,13.42,1551484332.0
452,Severodvinsk,RU,-2.21,64.56,39.82,84.0,90.0,5.03,1551481200.0
453,Notre-Dame-du-Lac,CA,18.7,47.61,-68.8,35.0,75.0,10.29,1551483093.0
455,Petropavlovsk-Kamchatskiy,RU,6.8,53.05,158.65,60.0,68.0,8.95,1551481200.0
456,Santa Vitoria do Palmar,BR,75.53,-33.52,-53.37,58.0,44.0,11.41,1551484336.0
457,Beringovskiy,RU,26.44,63.05,179.32,88.0,12.0,18.57,1551484336.0
458,Nevelsk,RU,14.0,46.67,141.86,92.0,0.0,17.0,1551481200.0
459,Itea,GR,42.35,38.43,22.42,88.0,24.0,6.82,1551484250.0
460,Husum,DE,37.49,54.49,9.05,86.0,76.0,2.24,1551484320.0
461,Koper,BF,66.85,11.1,-2.93,24.0,0.0,9.28,1551484338.0
462,Vila Velha,BR,82.13,-3.71,-38.6,78.0,20.0,3.36,1551484089.0
464,Miri,NG,71.48,10.31,9.75,65.0,36.0,1.68,1551484342.0
465,Popondetta,PG,78.41,-8.77,148.24,77.0,36.0,2.35,1551484342.0
466,Nalut,LY,41.51,31.86,10.98,71.0,0.0,5.59,1551484344.0
467,Cessnock,AU,77.16,-32.83,151.35,57.0,36.0,9.17,1551484330.0
468,Muros,ES,54.27,42.77,-9.06,100.0,90.0,4.7,1551484292.0
469,Wanaka,NZ,65.95,-44.7,169.14,39.0,0.0,1.57,1551484345.0
470,Chodavaram,IN,68.51,17.44,81.78,95.0,12.0,3.24,1551484346.0
471,Khilok,RU,6.86,51.36,110.46,55.0,32.0,2.57,1551484346.0
472,Margate,AU,89.22,-43.03,147.26,26.0,0.0,11.41,1551484334.0
473,Chernyshevsk,RU,5.96,52.51,117.01,59.0,0.0,2.35,1551484346.0
476,Geraldton,CA,14.0,49.72,-86.95,43.0,90.0,2.24,1551481200.0
477,Buchanan,LR,77.0,5.88,-10.05,94.0,20.0,6.26,1551481200.0
479,Reconquista,AR,75.76,-29.14,-59.64,52.0,0.0,6.93,1551484350.0
480,Ust-Ilimsk,RU,22.93,57.96,102.73,85.0,88.0,4.47,1551484350.0
481,Cap Malheureux,MU,80.35,-19.98,57.61,88.0,40.0,11.41,1551484139.0
482,Miyako,JP,46.85,33.63,130.94,81.0,75.0,3.36,1551484345.0
483,Saint-Joseph,FR,47.44,43.56,6.97,93.0,0.0,2.24,1551484220.0
484,Bambanglipuro,ID,74.63,-7.95,110.28,96.0,80.0,4.25,1551484353.0
485,Sfantu Gheorghe,RO,43.12,44.65,26.83,60.0,0.0,6.93,1551484284.0
486,Gorakhpur,IN,46.91,26.76,83.37,86.0,0.0,2.91,1551484354.0
487,Henties Bay,NA,66.99,-22.12,14.28,84.0,36.0,5.01,1551481328.0
488,Varhaug,NO,33.98,58.61,5.65,80.0,0.0,5.82,1551484204.0
489,Pervomayskoye,RU,15.95,57.07,86.23,87.0,68.0,6.26,1551484354.0
490,Pital,CO,71.03,2.27,-75.81,71.0,56.0,2.13,1551484355.0
491,Xuchang,CN,44.6,34.03,113.82,75.0,90.0,6.71,1551481200.0
492,Saint Anthony,US,30.94,43.97,-111.68,51.0,1.0,10.29,1551484324.0
493,Ormara,PK,71.93,25.21,64.64,89.0,92.0,21.03,1551484072.0
494,Bagdarin,RU,1.73,54.44,113.59,51.0,12.0,2.35,1551484357.0
495,Kedougou,SN,59.74,12.56,-12.19,33.0,0.0,6.38,1551484360.0
496,Izumo,JP,38.39,35.37,132.75,86.0,40.0,6.93,1551481200.0
498,Great Bend,US,34.52,38.36,-98.78,69.0,1.0,14.99,1551484025.0
499,Belyy Yar,RU,21.2,53.6,91.39,85.0,0.0,1.68,1551481200.0
500,Stratford,CA,25.9,43.37,-80.98,49.0,90.0,3.36,1551484324.0
501,Am Timan,TD,75.76,11.04,20.28,45.0,32.0,3.91,1551484364.0
502,Nabire,ID,69.5,-3.36,135.5,96.0,88.0,2.35,1551484365.0
503,Tikapur,NP,45.56,28.53,81.12,52.0,68.0,3.58,1551484366.0
504,Allanridge,ZA,55.0,-27.75,26.64,69.0,0.0,2.91,1551483953.0
505,Havoysund,NO,14.0,71.0,24.66,61.0,0.0,6.93,1551482400.0
506,Scottsbluff,US,38.98,41.87,-103.67,26.0,1.0,16.11,1551484150.0
507,Champerico,MX,91.4,16.38,-93.6,36.0,20.0,16.11,1551480420.0
508,Bubaque,GW,78.86,11.28,-15.83,88.0,0.0,18.34,1551484367.0
509,Atasu,KZ,29.36,48.68,71.64,86.0,92.0,4.36,1551484367.0
510,Poya,NC,77.51,-21.35,165.16,93.0,8.0,27.29,1551484367.0
511,Norwich,GB,44.91,52.63,1.29,93.0,92.0,8.05,1551484326.0
512,Ilinskiy,RU,19.69,55.62,38.12,79.0,75.0,13.42,1551483677.0
513,Krasnyy Chikoy,RU,10.42,50.36,108.75,64.0,36.0,2.24,1551484368.0
514,Palana,RU,11.81,59.08,159.95,72.0,48.0,3.8,1551484369.0
516,Ridgecrest,US,63.1,35.62,-117.67,26.0,0.0,18.01,1551484225.0
517,Srikakulam,IN,75.8,18.29,83.89,100.0,48.0,7.61,1551484370.0
518,Kulhudhuffushi,MV,82.06,6.62,73.07,100.0,8.0,6.6,1551484370.0
519,Mayumba,GA,78.01,-3.44,10.65,100.0,88.0,3.36,1551484371.0
520,Dutlwe,BW,66.76,-23.98,23.93,55.0,0.0,3.8,1551484371.0
521,Xam Nua,LA,57.26,20.42,104.04,95.0,8.0,1.9,1551484371.0
522,El Alto,BO,51.8,-16.5,-68.19,66.0,75.0,6.93,1551481200.0
524,Pechenga,RU,10.01,58.89,41.46,79.0,56.0,8.28,1551484373.0
525,Chekhov,RU,20.16,55.14,37.45,85.0,75.0,15.66,1551483677.0
526,Byron Bay,AU,73.06,-28.65,153.62,94.0,40.0,4.7,1551484274.0
527,Nunoa,PE,38.14,-14.48,-70.64,100.0,68.0,0.67,1551484373.0
528,Coruripe,BR,83.18,-10.12,-36.18,92.0,76.0,11.18,1551484374.0
529,Saint-Philippe,CA,19.54,45.36,-73.48,57.0,1.0,2.46,1551483945.0
530,Omboue,GA,80.3,-1.57,9.26,100.0,76.0,3.02,1551484374.0
531,Okha,RU,-0.84,53.59,142.95,89.0,36.0,3.36,1551484374.0
532,Solnechnyy,RU,13.88,50.72,136.64,67.0,0.0,2.57,1551484374.0
533,Malartic,CA,21.2,48.14,-78.13,85.0,90.0,9.17,1551483060.0
535,Sobolevo,RU,18.07,54.43,31.9,78.0,88.0,15.66,1551484376.0
536,Guasdualito,VE,91.4,7.24,-70.73,38.0,20.0,6.93,1551481200.0
537,Salamiyah,SY,33.82,35.01,37.05,91.0,0.0,5.48,1551484376.0
538,Grand Gaube,MU,80.33,-20.01,57.66,88.0,40.0,11.41,1551484139.0
539,Bloomington,US,37.11,40.47,-88.99,51.0,1.0,4.7,1551484105.0
540,Russell,AR,89.6,-33.01,-68.8,31.0,0.0,3.36,1551481200.0
541,Jacareacanga,BR,77.2,-6.22,-57.76,90.0,36.0,2.13,1551484377.0
542,Lakes Entrance,AU,86.0,-37.88,147.99,36.0,0.0,11.99,1551483911.0
543,Albury,AU,82.0,-36.08,146.92,39.0,0.0,10.29,1551484224.0
544,Cayenne,GF,78.8,4.94,-52.33,74.0,100.0,8.05,1551483000.0
546,Mujiayingzi,CN,32.33,42.12,118.78,71.0,0.0,6.6,1551484381.0
547,Sunbury,US,31.96,40.86,-76.79,80.0,90.0,3.69,1551484212.0
548,Novoagansk,RU,19.51,61.94,76.66,79.0,80.0,7.83,1551484383.0
549,Zyryanka,RU,-6.64,65.73,150.89,58.0,64.0,4.03,1551484383.0
550,Piranhas,BR,80.44,-9.61,-37.76,65.0,64.0,7.16,1551484384.0
551,Kamaishi,JP,37.4,39.28,141.86,59.0,40.0,4.7,1551481200.0
552,Noshiro,JP,38.64,40.21,140.05,69.0,40.0,4.7,1551481200.0
553,Wajima,JP,35.6,37.4,136.9,93.0,0.0,1.12,1551481200.0
554,Sioux Lookout,CA,10.4,50.1,-91.92,51.0,75.0,8.05,1551481200.0
555,Suntar,RU,11.14,62.16,117.65,88.0,64.0,3.69,1551484385.0
556,Corralillo,CU,79.31,22.98,-80.59,71.0,32.0,9.95,1551484385.0
557,Juneau,US,42.24,58.3,-134.42,56.0,40.0,3.36,1551484201.0
558,Demidov,RU,16.4,55.27,31.52,79.0,36.0,14.43,1551484393.0
559,Coihaique,CL,59.79,-45.58,-72.07,59.0,40.0,6.93,1551481200.0
560,Ossora,RU,-2.01,59.24,163.07,100.0,0.0,2.35,1551484394.0
561,Tandalti,SD,67.84,13.01,31.87,15.0,0.0,11.97,1551484394.0
562,Puri,ID,77.0,-7.54,112.45,100.0,20.0,2.24,1551481200.0
563,Sanmenxia,CN,38.68,34.77,111.19,95.0,92.0,3.36,1551484395.0
564,Namatanai,PG,84.4,-3.66,152.44,94.0,0.0,8.72,1551484395.0
565,Kerchevskiy,RU,18.34,59.95,56.29,90.0,88.0,5.7,1551484395.0
566,Pemberton,AU,57.99,-34.44,116.03,80.0,64.0,4.47,1551484227.0
567,Augusta,US,24.87,44.31,-69.78,50.0,20.0,4.7,1551484324.0
568,Lavrentiya,RU,22.16,65.58,-170.99,95.0,0.0,6.15,1551484396.0
569,Shache,CN,34.0,38.42,77.24,94.0,12.0,2.91,1551484151.0
570,Ritchie,ZA,66.2,-29.03,24.6,37.0,0.0,4.7,1551481200.0
571,Itaituba,BR,79.76,-4.26,-55.99,76.0,32.0,3.69,1551484397.0
573,Kangaatsiaq,GL,18.56,68.31,-53.46,100.0,76.0,2.57,1551484398.0
574,Natal,BR,81.48,-5.81,-35.21,78.0,40.0,6.93,1551481200.0
575,Myitkyina,MM,51.23,25.38,97.4,95.0,0.0,2.68,1551484398.0
576,Yanagawa,JP,47.61,33.16,130.41,87.0,88.0,6.93,1551484285.0
577,Rosbach,DE,42.84,50.3,8.7,75.0,75.0,5.82,1551484352.0
578,Dingle,PH,75.22,11.0,122.67,81.0,24.0,11.07,1551484401.0
579,Zunyi,CN,39.58,27.73,106.92,93.0,80.0,3.36,1551484401.0
580,Parrita,CR,71.89,9.52,-84.33,73.0,75.0,6.93,1551484145.0
581,Diego de Almagro,CL,68.33,-26.39,-70.05,62.0,0.0,2.68,1551484402.0
582,Monrovia,LR,77.0,6.33,-10.8,94.0,20.0,4.81,1551481200.0
583,Luderitz,NA,63.38,-26.65,15.16,75.0,0.0,18.01,1551484169.0
584,Maceio,BR,78.8,-9.67,-35.74,78.0,20.0,6.93,1551481200.0
585,Antofagasta,CL,68.0,-23.65,-70.4,77.0,75.0,14.99,1551481200.0
586,Xuanzhou,CN,43.58,30.95,118.78,99.0,92.0,15.32,1551484404.0
587,Gizo,IL,51.91,31.8,34.94,87.0,75.0,8.05,1551484385.0
588,Fonte Boa,BR,81.61,-2.51,-66.09,77.0,12.0,4.81,1551484406.0
589,Elbeuf,FR,46.15,49.29,1.01,93.0,90.0,5.82,1551484282.0
590,Ypsonas,CY,51.8,34.69,32.96,72.0,40.0,9.17,1551484272.0
591,Hammerfest,NO,14.0,70.66,23.68,61.0,0.0,6.93,1551482400.0
592,Krk,HR,47.73,45.03,14.57,71.0,20.0,3.36,1551484226.0
593,Nicoya,CR,91.4,10.15,-85.45,43.0,0.0,10.29,1551481200.0
594,Sabha,LY,53.35,27.03,14.43,46.0,76.0,9.62,1551484408.0
595,Nantucket,US,30.87,41.28,-70.1,68.0,90.0,8.72,1551484404.0
596,Kasane,BW,68.47,-17.8,25.16,65.0,0.0,2.68,1551484408.0
597,Belaya Gora,RU,-26.35,68.54,146.19,40.0,32.0,4.92,1551484408.0
598,Mangan,IN,5.29,27.5,88.54,42.0,0.0,1.68,1551484408.0
600,Nizhniy Tsasuchey,RU,15.23,50.52,115.13,69.0,0.0,3.47,1551484410.0
601,Cockburn Town,TC,78.01,21.46,-71.14,97.0,12.0,16.67,1551484218.0
602,Buala,SB,86.02,-8.15,159.59,75.0,88.0,4.36,1551484412.0
603,Pontes e Lacerda,BR,76.88,-15.23,-59.33,82.0,8.0,4.59,1551484299.0
604,Antanifotsy,MG,61.45,-19.66,47.32,89.0,88.0,2.68,1551484414.0
605,Lahaina,US,73.13,20.87,-156.68,56.0,40.0,14.99,1551484294.0
606,Lethem,GY,86.74,3.38,-59.8,44.0,0.0,16.89,1551484415.0
607,Kamskiye Polyany,RU,28.4,55.43,51.42,92.0,40.0,8.95,1551481200.0
608,Durham,GB,43.54,54.78,-1.58,93.0,20.0,3.36,1551484265.0
609,Hrodna,BY,15.82,53.68,23.83,72.0,0.0,6.93,1551484417.0
610,Seabra,BR,69.41,-12.42,-41.77,71.0,48.0,5.26,1551484254.0
611,Traverse City,US,25.95,44.76,-85.62,54.0,90.0,3.36,1551484233.0
